ride_id,rideable_type,started_at,ended_at,start_station_name,start_station_id,end_station_name,end_station_id,start_lat,start_lng,end_lat,end_lng,member_casual,date,avgTemp
2114050B14A4C7CD,electric_bike,2022-05-19 15:32:21.875,2022-05-19 16:13:12.193,Clinton St & Grand St,5303.06,Maiden Ln & Pearl St,5065.10,40.71559509,-73.9870295,40.70706456,-74.00731853,casual,2022-05-19,15.5
445E1F0A57C3DB2A,classic_bike,2022-02-17 13:01:28.685,2022-02-17 13:03:36.512,E 2 St & Avenue C,5476.03,E 2 St & Avenue A,5553.10,40.7208736,-73.98085795,40.72307749068673,-73.98583620786667,member,2022-02-17,11.6
6FBA3AF3C7375D27,electric_bike,2022-10-30 13:14:33.040,2022-10-30 13:21:27.726,E 2 St & Avenue A,5553.10,Cooper Square & Astor Pl,5712.03,40.72307749068673,-73.98583620786667,40.72951496224949,-73.99075269699097,member,2022-10-30,12.5
EA3546E461727B37,electric_bike,2022-09-19 18:36:18.079,2022-09-19 18:51:08.533,N 12 St & Bedford Ave,5450.04,Franklin Ave & Myrtle Ave,4715.01,40.72079821,-73.95484712,40.694546087246025,-73.95801365375519,member,2022-09-19,25.6
4ABEFBC65459916A,classic_bike,2022-05-29 17:40:04.024,2022-05-29 18:02:35.670,Broadway\t& W 48 St,6708.04,St Marks Pl & 2 Ave,5669.10,40.76017739537783,-73.98486793041229,40.7284186,-73.98713956,member,2022-05-29,20.7
34397ED91E9FF3ED,electric_bike,2022-09-21 07:25:50.918,2022-09-21 07:40:47.726,37 Ave & 35 St,6529.02,1 Ave & E 68 St,6822.09,40.7531106,-73.9279917,40.76500525,-73.95818491,casual,2022-09-21,22.0
DB511BAEE7CA7B06,electric_bike,2022-02-18 19:12:24.665,2022-02-18 19:17:04.287,E 48 St & 3 Ave,6541.03,W 51 St & Rockefeller Plaza,6700.14,40.7546011026,-73.971878855,40.75973805251143,-73.97811613976955,member,2022-02-18,9.9
EB1B3508189CB67F,electric_bike,2022-09-23 20:51:18.915,2022-09-23 21:02:31.284,Thompson St & Bleecker St,5721.07,E 40 St & Park Ave,6432.11,40.728326559,-73.999727726,40.750756,-73.978326,member,2022-09-23,15.1
8913680F2A648FB7,classic_bike,2022-11-23 14:12:46.114,2022-11-23 14:18:11.712,12 Ave & W 40 St,6765.01,W 30 St & 10 Ave,6459.07,40.76087502,-74.00277668,40.752694,-74.002353,member,2022-11-23,9.4
434F39F15D2D800E,classic_bike,2022-04-01 23:30:57.935,2022-04-01 23:32:40.276,W 50 St & 9 Ave,6854.05,8 Ave & W 49 St,6747.07,40.76360467795863,-73.98917958140373,40.76171227910671,-73.98655101656914,member,2022-04-01,13.1
6E11A5A6F03D6F01,classic_bike,2022-10-11 17:58:41.763,2022-10-11 18:43:09.084,Bus Slip & State St,4889.06,E 5 St & Ave A,5626.06,40.701907,-74.013942,40.72479007746337,-73.98430064320564,member,2022-10-11,17.0
80BB2107557C8F43,classic_bike,2022-07-29 01:47:49.571,2022-07-29 01:53:35.488,Grand St & Havemeyer St,5267.08,Bedford Ave & Nassau Ave,5550.05,40.71286844,-73.95698119,40.72311651,-73.95212324,casual,2022-07-29,28.2
BC9DE4A2D7A797FD,classic_bike,2022-01-24 16:12:20.356,2022-01-24 16:23:53.431,Crescent St & Broadway,6827.11,Newtown Ave & 23 St,7026.08,40.7633589,-73.9286471,40.7713615,-73.9246145,member,2022-01-24,-0.2
A92FD5D611E78F29,electric_bike,2022-10-18 17:35:06.179,2022-10-18 17:52:32.572,Columbus Ave & W 72 St,7175.05,Broadway & W 38 St,6560.15,40.7770575,-73.97898475,40.7529728216068,-73.98734897375107,member,2022-10-18,12.6
DF8B89B196A17122,electric_bike,2022-07-04 22:41:35.054,2022-07-04 23:08:22.861,Cabrini Blvd & W 177 St,8358.10,Isham St & Broadway,8665.09,40.848282,-73.941343,40.86788,-73.919685,member,2022-07-04,25.6
6EC633C0FA9FC34B,classic_bike,2022-10-12 10:46:44.663,2022-10-12 10:51:49.839,1 Ave & E 68 St,6822.09,3 Ave & E 62 St,6762.04,40.76500525,-73.95818491,40.76312584,-73.96526895,member,2022-10-12,17.9
CF0FAA0C866EE883,classic_bike,2022-09-27 22:58:11.503,2022-09-27 23:09:18.320,Rutgers St & Henry St,5230.02,Fulton St & Broadway,5175.08,40.71332151208186,-73.99009689688683,40.711066,-74.009447,member,2022-09-27,19.7
60A7C0B83F655E5C,electric_bike,2022-02-13 19:15:55.487,2022-02-13 19:17:25.511,E 7 St & Avenue A,5626.07,1 Ave & E 6 St,5626.15,40.72621788,-73.98379855,40.72633085971696,-73.98616880178452,member,2022-02-13,2.8
B84F834B4FB4A6C7,electric_bike,2022-05-30 14:42:55.822,2022-05-30 15:26:59.953,Broadway & W 38 St,6560.15,Broadway & W 41 St,6560.01,40.754036188,-73.987311363,40.75513557,-73.98658032,member,2022-05-30,23.3
70028C87A21A5C33,classic_bike,2022-06-04 19:12:27.244,2022-06-04 19:18:53.140,Riverside Dr & W 82 St,7388.10,W 84 St & Columbus Ave,7382.04,40.78720869,-73.98128127,40.78499979,-73.97283406,member,2022-06-04,21.9
43A239F4BCACB5E9,classic_bike,2022-02-06 16:05:52.454,2022-02-06 16:11:41.268,Lenox Ave & W 117 St,7655.22,Frederick Douglass Blvd & W 112 St,7631.23,40.8025566,-73.9490782,40.801694,-73.957145,member,2022-02-06,-4.8
2C7F730F86239504,electric_bike,2022-09-30 19:07:40.822,2022-09-30 19:16:21.666,Vernon Blvd & 50 Ave,6170.02,India St Pier,5794.05,40.74232744,-73.95411749,40.731734785883454,-73.9612390102593,casual,2022-09-30,14.5
EC2FD10EBA4A7F40,electric_bike,2022-02-17 12:32:22.237,2022-02-17 13:14:29.655,W Broadway & Spring St,5569.06,W 59 St & 10 Ave,7023.04,40.72494672359416,-74.00165855884552,40.770513,-73.988038,member,2022-02-17,11.6
EDE0DD7334420699,electric_bike,2022-07-24 14:59:49.692,2022-07-24 15:21:39.222,Pier 40 - Hudson River Park,5696.03,3 Ave & Schermerhorn St,4437.01,40.7277140777778,-74.01129573583603,40.68683208,-73.9796772,member,2022-07-24,31.1
676EA4C4D922F1CE,classic_bike,2022-05-29 10:47:44.548,2022-05-29 10:59:40.680,Hamilton Pl & W 138 St,7920.01,W 140 St & Riverside Dr,7981.27,40.821728,-73.952761,40.824013,-73.954743,casual,2022-05-29,20.7
36DE4AF2B6BF51E8,electric_bike,2022-09-25 17:51:57.211,2022-09-25 18:38:04.368,W 84 St & Columbus Ave,7382.04,Pinehurst Ave & W 187 St,8458.03,40.785127759,-73.972936988,40.855331,-73.937878,member,2022-09-25,19.2
EC87867719DB5DEF,classic_bike,2022-08-05 21:37:16.626,2022-08-05 21:43:37.424,Steinway St & Broadway,6711.13,34 St & 38 Ave,6453.02,40.75905795418586,-73.91897544264793,40.752443,-73.929737,member,2022-08-05,29.3
29644FB030452676,electric_bike,2022-11-10 18:50:43.501,2022-11-10 19:00:09.263,E 53 St & Lexington Ave,6617.09,2 Ave & E 31 St,6197.02,40.758484602,-73.970624685,40.74290902,-73.97706058,casual,2022-11-10,12.6
955799CE1140AFF9,classic_bike,2022-07-21 10:50:41.952,2022-07-21 11:57:19.012,Plaza St West & Flatbush Ave,4010.13,Eastern Pkwy & Washington Ave,3928.08,40.6750207,-73.97111473,40.6716493,-73.9631145,casual,2022-07-21,29.8
3D7F7C3333809C5E,electric_bike,2022-06-11 20:15:48.498,2022-06-11 20:36:25.232,Cadman Plaza E & Tillary St,4677.01,Leonard St & Church St,5359.11,40.69597683,-73.99014892,40.717571,-74.005549,member,2022-06-11,21.8
2793044FCAE43F8A,electric_bike,2022-04-03 13:43:16.271,2022-04-03 13:56:45.548,Broadway & Roebling St,5125.07,Meserole Ave & Manhattan Ave,5666.04,40.70924826276157,-73.96063148975372,40.72708584,-73.95299117,member,2022-04-03,7.0
20D0D737097BE39A,electric_bike,2022-11-28 08:16:24.945,2022-11-28 08:40:48.501,Irving Ave & DeKalb Ave,4898.02,4 Ave & 9 St,3955.05,40.702715874,-73.921099186,40.6705135,-73.98876585,casual,2022-11-28,12.2
06E50C68CBC136F0,classic_bike,2022-08-11 13:24:10.115,2022-08-11 13:28:51.603,W 84 St & Broadway,7409.08,W 76 St & Columbus Ave,7281.09,40.7867947,-73.977112,40.7801839724239,-73.97728532552719,casual,2022-08-11,26.6
235497C90904B11E,electric_bike,2022-06-22 09:40:11.722,2022-06-22 09:52:33.977,Division Ave & Marcy Ave,5084.03,Meserole Ave & Manhattan Ave,5666.04,40.70708701,-73.95796783,40.72708584,-73.95299117,member,2022-06-22,19.1
A83396B07C593133,classic_bike,2022-03-21 20:27:33.476,2022-03-21 20:39:28.453,E 4 St & 2 Ave,5593.04,South St & Pike St,5159.07,40.7262807,-73.98978041,40.70991806921533,-73.99161100387573,member,2022-03-21,10.4
07F6361E4011BA4C,classic_bike,2022-06-28 16:50:17.118,2022-06-28 16:56:17.418,E 16 St & 5 Ave,6022.04,Sullivan St & Washington Sq,5721.01,40.73726186,-73.99238967,40.73047747,-73.99906065,member,2022-06-28,22.4
D94865DBB37358E6,electric_bike,2022-04-22 08:07:30.233,2022-04-22 08:10:29.488,W 21 St & 6 Ave,6140.05,W 27 St & 7 Ave,6247.06,40.74173969,-73.99415556,40.746647,-73.993915,member,2022-04-22,14.6
2E62175571E198D5,classic_bike,2022-11-28 12:16:43.586,2022-11-28 13:40:49.071,Clark St & Henry St,4789.03,Warren St & Court St,4413.08,40.69760127,-73.99344559,40.686371,-73.99383324,casual,2022-11-28,12.2
917822DB6B568618,classic_bike,2022-11-13 05:25:33.656,2022-11-13 05:27:26.980,10 St & 7 Ave,3762.08,6 Ave & 12 St,3803.05,40.6662078,-73.98199886,40.6663181,-73.9854617,member,2022-11-13,12.9
34FA1365A5613131,classic_bike,2022-08-12 10:03:20.848,2022-08-12 10:18:54.710,Mott St & Prince St,5561.04,W 24 St & 7 Ave,6257.03,40.72317958,-73.99480012,40.74487634,-73.99529885,member,2022-08-12,25.6
070BD13B746419AF,electric_bike,2022-09-01 08:51:28.585,2022-09-01 09:02:14.281,3 Ave & E 62 St,6762.04,21 St & 43 Ave,6395.01,40.763016105,-73.965632677,40.75052534,-73.94594845,member,2022-09-01,25.9
9423F54C21E7F85A,classic_bike,2022-06-25 01:46:03.321,2022-06-25 02:56:44.140,E 2 St & Avenue A,5553.10,Lafayette St & E 8 St,5788.13,40.72307749068673,-73.98583620786667,40.73020660529954,-73.99102628231049,casual,2022-06-25,25.8
1E76301C813BC624,electric_bike,2022-08-20 17:33:57.143,2022-08-20 17:39:46.258,E 89 St & York Ave,7204.08,E 88 St & Park Ave,7293.10,40.777911067,-73.945904374,40.781410700190015,-73.95595908164978,casual,2022-08-20,27.9
8C0E2C40773D07FA,electric_bike,2022-03-06 13:58:43.326,2022-03-06 14:14:08.703,6 Ave & W 34 St,6364.10,E 44 St & Lexington Ave,6464.09,40.74964,-73.98805,40.752643,-73.974996,casual,2022-03-06,9.6
EEE31484E09B7EEF,electric_bike,2022-06-17 08:45:01.367,2022-06-17 09:00:30.273,William St & Pine St,5065.12,6 Ave & W 34 St,6364.10,40.707097888,-74.00897944,40.74964,-73.98805,member,2022-06-17,25.2
33C48E2973144699,classic_bike,2022-09-20 17:28:53.320,2022-09-20 18:05:13.269,W 22 St & 10 Ave,6306.06,E 85 St & York Ave,7146.04,40.74691959,-74.00451887,40.77536905,-73.94803392,member,2022-09-20,23.2
DD60C06483B3BC17,classic_bike,2022-09-08 11:31:09.651,2022-09-08 11:34:02.585,Washington Square E,5755.09,University Pl & E 14 St,5905.14,40.73049393,-73.9957214,40.734814,-73.992085,member,2022-09-08,21.8
30C4CF9494D7F055,classic_bike,2022-10-11 15:03:23.540,2022-10-11 15:09:00.767,E 39 St & Lexington Ave,6389.09,E 47 St & 2 Ave,6498.10,40.7494985460252,-73.97729203113158,40.75323098,-73.97032517,member,2022-10-11,17.0
E41F6DE097F77445,electric_bike,2022-08-07 08:42:35.702,2022-08-07 08:45:01.890,E 81 St & York Ave,7084.12,E 85 St & 3 Ave,7212.05,40.772798777,-73.949684262,40.77801203,-73.95407149,member,2022-08-07,29.6
00888E01E1E38B9C,classic_bike,2022-06-09 07:46:58.519,2022-06-09 07:57:22.717,Metropolitan Ave & Meeker Ave,5300.05,Stagg St & Morgan Ave,5170.01,40.71413311,-73.95234386,40.710681,-73.93372,casual,2022-06-09,24.4
D31CF37FC2CDF399,classic_bike,2022-05-26 13:46:46.418,2022-05-26 13:53:16.841,Central Park North & Adam Clayton Powell Blvd,7617.07,Central Park North & Adam Clayton Powell Blvd,7617.07,40.799484,-73.955613,40.799484,-73.955613,casual,2022-05-26,16.4
AC2784CDD2829944,classic_bike,2022-07-05 19:28:16.062,2022-07-05 19:40:34.469,E 91 St & Park Ave,7344.05,2 Ave & E 72 St,6925.09,40.7835016,-73.955327,40.7687620293096,-73.95840793848038,member,2022-07-05,25.9
08F59BBCD4220B2E,electric_bike,2022-09-16 15:01:13.556,2022-09-16 15:05:52.229,Fulton St & Broadway,5175.08,Market St & Henry St,5270.09,40.711066,-74.009447,40.71310702305908,-73.99446353316307,member,2022-09-16,19.6
7151B111AD666316,electric_bike,2022-06-24 15:21:02.040,2022-06-24 15:34:49.415,W 13 St & 5 Ave,5947.04,12 Ave & W 40 St,6765.01,40.735445,-73.99431,40.76087502,-74.00277668,casual,2022-06-24,21.9
3F587E88F426A942,electric_bike,2022-08-10 15:28:18.836,2022-08-10 15:37:28.515,E 27 St & Park Ave S,6131.13,Madison Av & E 51 St,6659.09,40.742916703,-73.98470819,40.75863,-73.97513,member,2022-08-10,27.2
6FAF52CEE7EC1299,classic_bike,2022-06-03 14:12:19.750,2022-06-03 14:38:44.892,Broadway & E 19 St,6098.12,Broadway & Battery Pl,4962.01,40.73866091428551,-73.98987293243407,40.70463334,-74.01361706,casual,2022-06-03,19.5
1E035DC7B5E4B145,classic_bike,2022-07-29 18:00:45.913,2022-07-29 18:07:20.941,7 Ave & Central Park South,6912.01,1 Ave & E 62 St,6753.08,40.7667405590595,-73.9790689945221,40.7612274,-73.96094022,member,2022-07-29,28.2
5B12B374E54E4FFC,classic_bike,2022-04-14 20:55:55.320,2022-04-14 20:59:23.844,48 St & Broadway,6629.06,30 Ave & 47 St,6774.13,40.755763,-73.912715,40.761294,-73.909562,member,2022-04-14,16.3
C71A3168F7F8C484,electric_bike,2022-06-13 08:27:17.191,2022-06-13 08:42:40.733,N 11 St & Kent Ave,5489.04,Madison St & Clinton St,5190.07,40.72248188638219,-73.95921930670738,40.71269042,-73.98776323,member,2022-06-13,24.2
6F351E00B394D939,classic_bike,2022-09-20 12:23:19.180,2022-09-20 12:27:49.149,31 St & 23 Ave,7144.01,Ditmars Blvd & 43 St,7039.03,40.7747878,-73.9125551,40.771203,-73.903865,member,2022-09-20,23.2
3F6194E309A8BBAC,classic_bike,2022-02-27 10:29:13.507,2022-02-27 10:32:01.784,11 Ave & W 41 St,6726.01,W 44 St & 11 Ave,6756.05,40.76030096,-73.99884222,40.762009,-73.996975,member,2022-02-27,2.4
344D86AE221C5614,classic_bike,2022-05-31 09:49:28.213,2022-05-31 09:57:34.462,W 29 St & 9 Ave,6416.06,W 16 St & The High Line,6233.05,40.7500727,-73.99839279,40.74334935,-74.00681753,member,2022-05-31,28.3
B46F115C15E9D712,classic_bike,2022-03-01 08:43:34.659,2022-03-01 08:48:30.908,E 84 St & 1 Ave,7180.02,2 Ave & E 96 St,7338.02,40.77565541,-73.95068615,40.7839636,-73.9471673,casual,2022-03-01,2.6
3889F547060E550D,classic_bike,2022-04-05 10:09:57.059,2022-04-05 10:38:00.971,W 63 St & Broadway,7052.01,E 44 St & 2 Ave,6422.09,40.77163851,-73.98261428,40.75118387463277,-73.97138714790344,member,2022-04-05,9.7
70D3FD690AFDAB6E,classic_bike,2022-05-23 13:30:42.569,2022-05-23 13:42:20.325,E 16 St & Irving Pl,5938.11,E 40 St & Park Ave,6432.11,40.735367055605394,-73.98797392845154,40.750756,-73.978326,member,2022-05-23,21.0
852E88F78B68CF91,classic_bike,2022-09-27 18:11:13.758,2022-09-27 18:19:10.893,Great Jones St,5636.11,Allen St & Hester St,5342.10,40.72743423,-73.99379025,40.71605866,-73.99190759,member,2022-09-27,19.7
9972B71C5856DB9D,classic_bike,2022-10-29 11:52:21.111,2022-10-29 12:00:49.357,12 Ave & W 40 St,6765.01,W 20 St & 10 Ave,6306.01,40.76087502,-74.00277668,40.745686,-74.005141,casual,2022-10-29,10.8
EBC5EF59DAD10C0B,classic_bike,2022-10-27 17:51:46.315,2022-10-27 18:05:49.099,W 25 St & 6 Ave,6215.04,E 14 St & Avenue B,5736.09,40.74395411,-73.99144871,40.72938685,-73.97772429,member,2022-10-27,16.9
71B03C3ED7F03199,classic_bike,2022-10-19 16:25:01.156,2022-10-19 16:51:34.807,Bergen St & Flatbush Ave,4281.08,Clinton St & Union St,4266.03,40.680944723477296,-73.97567331790923,40.6831164,-73.99785267,casual,2022-10-19,10.0
0A237B11380A9957,classic_bike,2022-10-07 12:48:06.055,2022-10-07 12:57:32.225,31 St & Broadway,6789.04,24 Ave & 26 St,7152.10,40.761584,-73.925921,40.774591,-73.918544,member,2022-10-07,20.3
223EF1A0D684D759,classic_bike,2022-08-19 10:38:30.508,2022-08-19 11:00:20.624,Greene Av & Myrtle Av,4784.02,Union Ave & N 12 St,5411.07,40.698568,-73.918877,40.71924,-73.95242,casual,2022-08-19,26.3
989161F5802B009A,classic_bike,2022-05-25 18:12:57.806,2022-05-25 18:45:24.477,Milton St & Franklin St,5752.07,Montrose Ave & Bushwick Ave,5068.02,40.72906,-73.95779,40.70767788,-73.94016171,member,2022-05-25,16.2
84F61D23F5337750,classic_bike,2022-12-29 20:09:44.026,2022-12-29 20:48:46.643,10 Ave & W 14 St,6157.04,St James Pl & Pearl St,5167.06,40.74198159994023,-74.00831580162048,40.71117416,-74.00016545,member,2022-12-29,6.4
7B05885210638683,classic_bike,2022-09-14 06:55:37.381,2022-09-14 06:58:00.826,W 54 St & 9 Ave,6920.03,Broadway & W 51 St,6779.04,40.76584941,-73.98690506,40.76228826,-73.98336183,member,2022-09-14,22.9
FD9BEBF472541C60,classic_bike,2022-08-12 20:08:57.911,2022-08-12 20:25:34.522,Orchard St & Grand St,5343.11,2 Ave & E 29 St,6122.09,40.717318403855785,-73.99067759513855,40.74172351097472,-73.97809267044067,member,2022-08-12,25.6
C669FA773EE487F6,classic_bike,2022-12-21 07:24:50.376,2022-12-21 07:31:28.743,8 Ave & W 31 St,6450.05,W 22 St & 10 Ave,6306.06,40.7505853470215,-73.9946848154068,40.74691959,-74.00451887,member,2022-12-21,1.0
89ABA7F2CEBB9046,classic_bike,2022-10-18 15:31:31.650,2022-10-18 15:33:30.733,Clinton St & Joralemon St,4605.04,Henry St & Atlantic Ave,4531.05,40.69239502,-73.99337909,40.69089272,-73.99612349,member,2022-10-18,12.6
A417F19FAEDFBE3E,classic_bike,2022-05-18 12:40:43.391,2022-05-18 13:13:12.189,8 Ave & W 38 St,6526.05,Ave A & E 11 St,5703.13,40.75461,-73.99177,40.728547,-73.981759,casual,2022-05-18,17.8
8FFD9FD15A829CD6,classic_bike,2022-08-23 12:51:30.327,2022-08-23 12:55:02.528,E 6 St & 2 Ave,5669.12,Cooper Square & Astor Pl,5712.03,40.72737869323223,-73.98840844631195,40.72951496224949,-73.99075269699097,member,2022-08-23,25.9
E2C1719E0CF56A12,classic_bike,2022-11-18 13:52:36.116,2022-11-18 14:08:58.919,W 20 St & 7 Ave,6182.02,Mercer St & Bleecker St,5679.05,40.74238787,-73.99726235,40.72706363348306,-73.99662137031554,member,2022-11-18,4.5
0FDCF1B95B2258CD,classic_bike,2022-07-20 20:24:21.128,2022-07-20 20:43:28.855,Stanton St & Norfolk St,5445.07,E 39 St & 2 Ave,6345.08,40.720747,-73.986274,40.74803319428767,-73.973827958107,member,2022-07-20,31.3
2C66A1E1A671D326,electric_bike,2022-10-27 18:57:00.411,2022-10-27 19:00:50.917,W 100 St & Manhattan Ave,7538.14,W 107 St & Columbus Ave,7619.05,40.795,-73.9645,40.7997568,-73.9621128676,member,2022-10-27,16.9
25B93A26E54E72F5,electric_bike,2022-07-10 21:05:48.617,2022-07-10 21:47:04.599,W 90 St & Amsterdam Ave,7432.04,Amsterdam Ave & W 82 St,7360.10,40.79017948095081,-73.97288918495178,40.78524672,-73.97667321,member,2022-07-10,23.4
664F4BC4F58BB1CD,classic_bike,2022-12-14 17:34:36.937,2022-12-14 18:09:06.776,E 20 St & 2 Ave,5971.08,E 85 St & 3 Ave,7212.05,40.73587678,-73.98205027,40.77801203,-73.95407149,member,2022-12-14,1.7
C65E08CEB4B24F58,classic_bike,2022-03-22 15:45:16.986,2022-03-22 15:47:55.373,Christopher St & Greenwich St,5847.01,Bank St & Hudson St,5922.08,40.73291553,-74.00711384,40.73652889,-74.00618026,member,2022-03-22,10.7
FEE1B3280638F3AA,electric_bike,2022-08-04 09:18:01.775,2022-08-04 09:30:45.939,1 Ave & E 68 St,6822.09,Broadway & W 51 St,6779.04,40.765074134,-73.95811069,40.76228826,-73.98336183,member,2022-08-04,29.1
F329ABDA78BD08BA,electric_bike,2022-02-15 11:37:15.981,2022-02-15 11:57:47.949,Johnson St & Gold St,4668.08,Fulton St & Clermont Ave,4386.05,40.69474881,-73.98362464,40.68415748,-73.96922273,member,2022-02-15,-4.7
0025F9B8AF3E106B,electric_bike,2022-09-07 21:53:08.057,2022-09-07 21:56:51.551,Steinway St & Broadway,6711.13,25 Ave & 41 St,6943.07,40.759162784,-73.91900456,40.767666,-73.910963,member,2022-09-07,20.8
C79369F3E1365C1F,classic_bike,2022-02-21 17:33:31.788,2022-02-21 17:57:28.897,E 17 St & Broadway,5980.07,E 58 St & 1 Ave (NE Corner),6682.03,40.73704984,-73.99009296,40.75892386377695,-73.96226227283478,casual,2022-02-21,4.1
0988F3ABCE4AE448,electric_bike,2022-11-01 14:05:10.547,2022-11-01 14:16:29.678,W 27 St & 7 Ave,6247.06,W 47 St & 10 Ave,6824.07,40.746856332,-73.99379766,40.76269882,-73.99301222,member,2022-11-01,16.9
93CDF8A26504448B,electric_bike,2022-10-08 22:25:15.915,2022-10-08 22:30:26.013,Morris Ave & E 184 St,8550.04,E Tremont Ave & E 176 St,8356.02,40.86008,-73.90079,40.847798,-73.901883,member,2022-10-08,13.9
4092EBAA1B5756C6,classic_bike,2022-03-21 18:37:27.221,2022-03-21 18:52:38.135,1 Ave & E 16 St,5779.08,Grand St & Elizabeth St,5382.06,40.73221853,-73.98165557,40.718822,-73.99596,member,2022-03-21,10.4
50B29130D1666F16,electric_bike,2022-12-02 08:08:10.816,2022-12-02 08:13:23.816,8 Ave & W 38 St,6526.05,9 Ave & W 22 St,6266.06,40.75461,-73.99177,40.7454973,-74.00197139,member,2022-12-02,3.4
C066FC0F5DF254AB,classic_bike,2022-07-25 17:29:43.100,2022-07-25 17:39:11.080,Dock 72 Way & Market St,4804.02,Front St & Washington St,4936.01,40.69985,-73.97141,40.70255088,-73.98940236,member,2022-07-25,29.8
AB55414A70BC28AE,classic_bike,2022-07-07 18:21:03.394,2022-07-07 18:26:37.514,W 20 St & 7 Ave,6182.02,Christopher St & Greenwich St,5847.01,40.74238787,-73.99726235,40.73291553,-74.00711384,member,2022-07-07,24.2
5D1DCD1EE1167A11,classic_bike,2022-05-27 09:31:32.957,2022-05-27 09:35:09.840,W 21 St & 6 Ave,6140.05,E 16 St & 5 Ave,6022.04,40.74173969,-73.99415556,40.73726186,-73.99238967,member,2022-05-27,20.2
2E06317060ED7568,classic_bike,2022-11-09 16:24:35.406,2022-11-09 16:39:09.047,5 Ave & E 63 St,6904.06,W 45 St & 8 Ave,6676.02,40.766368,-73.971518,40.75929124,-73.98859651,casual,2022-11-09,8.7
CEBE507FD36B86BA,classic_bike,2022-01-24 20:13:20.397,2022-01-24 20:28:14.455,Reade St & Broadway,5247.1,Mott St & Prince St,5561.04,40.71450451,-74.00562789,40.72317958,-73.99480012,member,2022-01-24,-0.2
3F4A4571DAF0360D,electric_bike,2022-06-25 13:08:34.536,2022-06-25 13:14:26.455,Park Ave & Marcus Garvey Blvd,4768.02,Bushwick Ave & Powers St,5250.05,40.698617,-73.941342,40.71247661,-73.94100005,member,2022-06-25,25.8
CD27D500EC1E960E,classic_bike,2022-07-15 21:23:00.081,2022-07-15 21:43:18.146,E 13 St & 2 Ave,5820.08,Warren St & W Broadway,5288.09,40.73153937464073,-73.9853024482727,40.71473993,-74.00910627,casual,2022-07-15,26.1
75FAEA23E5BD15A7,electric_bike,2022-02-01 19:54:35.547,2022-02-01 20:15:02.140,E 72 St & York Ave,6889.12,Crescent St & Broadway,6827.11,40.76663814,-73.95348296,40.7633589,-73.9286471,member,2022-02-01,-1.7
B1FC255DADA4DA0E,electric_bike,2022-07-28 08:17:24.602,2022-07-28 08:36:06.118,E 25 St & 1 Ave,6004.07,E 97 St & Madison Ave,7393.09,40.738058805,-73.97703838300001,40.787801,-73.953559,member,2022-07-28,26.7
9F2F1C011BAB2797,electric_bike,2022-10-05 19:03:11.182,2022-10-05 19:13:02.977,7 Ave & Central Park South,6912.01,5 Ave & E 78 St,7161.08,40.76644218,-73.979187012,40.77632142182271,-73.96427392959595,member,2022-10-05,13.8
88F96E58B066193D,classic_bike,2022-01-21 07:51:16.562,2022-01-21 07:58:09.760,Fulton St & Pearl St,5024.09,Park Pl & Church St,5288.08,40.70772198491691,-74.00438636541367,40.71334184275907,-74.00935515761375,member,2022-01-21,-6.0
BF5F3F0479FEE30B,classic_bike,2022-06-10 17:37:37.956,2022-06-10 17:49:46.121,E 11 St & 1 Ave,5746.14,Canal St & Rutgers St,5303.08,40.72953837,-73.98426726,40.71427487,-73.98990025,member,2022-06-10,21.8
0AFE1134D562C29B,classic_bike,2022-09-09 08:26:13.990,2022-09-09 08:31:48.052,Hudson St & W 13 St,6115.06,W 29 St & 9 Ave,6416.06,40.74005708567285,-74.0052741765976,40.7500727,-73.99839279,member,2022-09-09,21.9
3AAFFDAB577FE3AE,electric_bike,2022-01-21 22:33:03.299,2022-01-21 22:41:17.894,W 67 St & Broadway,7116.04,W 89 St & Columbus Ave,7432.09,40.77492513,-73.98266566,40.7882213,-73.97041561,member,2022-01-21,-6.0
FB416CBD42E148F7,classic_bike,2022-02-12 14:29:31.803,2022-02-12 15:00:33.745,Central Park S & 6 Ave,6876.04,5 Ave & E 87 St,7323.09,40.76590936,-73.97634151,40.78232260730881,-73.95987510681152,casual,2022-02-12,11.8
A19EC39C3C6A3D8E,electric_bike,2022-11-04 17:33:01.267,2022-11-04 17:35:33.008,Humboldt St & Varet St,4956.02,McKibbin St & Manhattan Ave,4996.08,40.7031724,-73.940636,40.70510918,-73.94407279,member,2022-11-04,15.2
B6CD005CD735950F,electric_bike,2022-09-26 07:34:57.564,2022-09-26 08:14:51.370,W 148 St & Amsterdam Ave,8033.09,Murray St & Greenwich St,5288.12,40.827075,-73.945909,40.71485150526252,-74.01122331619263,member,2022-09-26,19.4
D11D03992691D79C,electric_bike,2022-07-17 11:18:09.029,2022-07-17 11:41:13.246,West End Ave & W 94 St,7524.09,11 Ave & W 59 St,7059.01,40.7941654,-73.974124,40.77149671054441,-73.99046033620834,member,2022-07-17,25.7
7A41BD72AC6061D9,classic_bike,2022-08-08 15:26:46.542,2022-08-08 15:35:17.156,4 Ave & E 12 St,5788.15,W 22 St & 8 Ave,6224.03,40.732647,-73.99011,40.74475148,-73.99915362,casual,2022-08-08,30.3
BB0970C6B5515215,classic_bike,2022-09-11 10:11:26.647,2022-09-11 10:22:36.481,E 84 St & 1 Ave,7180.02,E 85 St & York Ave,7146.04,40.77565541,-73.95068615,40.77536905,-73.94803392,member,2022-09-11,23.2
7CBADD4994954A64,electric_bike,2022-09-25 14:15:33.474,2022-09-25 14:26:54.780,W 45 St & 8 Ave,6676.02,W 34 St & 11 Ave,6578.01,40.759479642,-73.98901403,40.75594159,-74.0021163,member,2022-09-25,19.2
9F076E08A18BFE8C,electric_bike,2022-12-28 16:32:06.477,2022-12-28 16:38:25.142,Kenmare St & Elizabeth St,5453.06,Washington Pl & 6 Ave,5838.09,40.72054,-73.9949,40.73224119,-74.00026394,member,2022-12-28,3.4
3EDE13326D2A6541,classic_bike,2022-07-07 13:43:04.692,2022-07-07 13:52:08.203,W 36 St & 7 Ave,6483.06,2 Ave & E 29 St,6122.09,40.752149,-73.989539,40.74172351097472,-73.97809267044067,member,2022-07-07,24.2
58D6F2EE4EA2C8DA,classic_bike,2022-01-17 09:33:36.510,2022-01-17 09:45:44.742,E 6 St & Avenue D,5506.14,Division St & Bowery,5270.08,40.72228087,-73.97668709,40.714193,-73.996732,member,2022-01-17,3.9
791C0AFCA01556CE,electric_bike,2022-11-19 10:37:53.844,2022-11-19 10:49:25.728,Broadway & W 37 St,6441.02,W 63 St & Broadway,7052.01,40.751466751,-73.987828612,40.77163851,-73.98261428,member,2022-11-19,2.8
CD7FED1FBF945606,classic_bike,2022-09-17 17:13:25.739,2022-09-17 17:20:40.630,Franklin St & W Broadway,5430.08,West Broadway & Watts St,5569.07,40.71911552,-74.00666661,40.72323,-74.00314,casual,2022-09-17,20.8
FE314B1851E6F6E3,classic_bike,2022-06-02 16:33:08.397,2022-06-02 16:45:24.313,Albany Ave & Fulton St,4237.02,Throop Ave & Myrtle Ave,4697.01,40.6800105,-73.938475,40.69622937,-73.94371094,casual,2022-06-02,20.3
6DF1CEFFA82F74B1,classic_bike,2022-11-03 06:09:33.841,2022-11-03 06:15:54.419,8 Ave & W 33 St,6450.12,W 42 St & 6 Ave,6517.08,40.751551,-73.993934,40.75492,-73.98455,member,2022-11-03,15.7
6B9B29EE89C919E3,classic_bike,2022-11-01 12:59:04.140,2022-11-01 13:03:28.924,Myrtle Ave & Marcy Ave,4707.03,Pulaski St & Marcus Garvey Blvd,4656.03,40.69539817,-73.94954908,40.6933982,-73.939877,member,2022-11-01,16.9
025C188F974CF0FB,classic_bike,2022-03-15 01:10:16.456,2022-03-15 01:23:42.849,Suydam St & Broadway,4689.03,Suydam St & Broadway,4689.03,40.69544,-73.93223,40.69544,-73.93223,casual,2022-03-15,11.6
2D07FF9221767751,classic_bike,2022-09-08 13:10:39.260,2022-09-08 13:23:43.551,Madison St & Clinton St,5190.07,Pike St & Monroe St,5159.04,40.71269042,-73.98776323,40.71173107,-73.99193043,member,2022-09-08,21.8
926181A2F6F4C2FD,classic_bike,2022-05-11 14:55:56.846,2022-05-11 15:21:14.791,Broadway & W 56 St,6847.02,Central Park West & W 72 St,7141.07,40.7652654,-73.98192338,40.77579376683666,-73.9762057363987,casual,2022-05-11,16.1
AEF6567F039D8734,classic_bike,2022-07-07 21:26:53.168,2022-07-07 21:42:22.924,Flatbush Ave & Ocean Ave,3704.04,Union St & Bedford Ave,3879.04,40.663657,-73.963014,40.6691783,-73.9554162,member,2022-07-07,24.2
53A9A3B34CB3A56F,classic_bike,2022-07-11 17:44:15.763,2022-07-11 17:52:38.142,Amsterdam Ave & W 82 St,7360.10,W 70 St & Amsterdam Ave,7207.08,40.78524672,-73.97667321,40.77748046,-73.98288594,member,2022-07-11,24.0
8E048FB95D597A93,electric_bike,2022-07-28 00:08:34.116,2022-07-28 00:41:05.109,Leonard St & Nassau Ave,5550.09,Fulton St & Waverly Ave,4345.11,40.7239567849954,-73.94984364509583,40.68323865460341,-73.96599590778351,member,2022-07-28,26.7
200AE3E107761B69,electric_bike,2022-05-31 17:28:43.455,2022-05-31 18:25:57.702,E 40 St & Park Ave,6432.11,Central Park W & W 97 St,7538.18,40.750756,-73.978326,40.79249519495111,-73.96417066463071,member,2022-05-31,28.3
D19BFE92AD733D5F,classic_bike,2022-05-20 10:13:25.652,2022-05-20 10:22:25.803,Franklin St & Dupont St,5944.01,Vernon Blvd & 47 Rd,6212.08,40.73564,-73.95866,40.7449067,-73.9534573,member,2022-05-20,15.4
39117564526A5CE3,classic_bike,2022-09-15 17:44:01.770,2022-09-15 17:55:59.972,Jay St & Tech Pl,4710.06,Forsyth St\t& Grand St,5382.07,40.695065,-73.987167,40.71779817737835,-73.99316132068634,member,2022-09-15,21.8
CCFF76822988CDC0,classic_bike,2022-07-14 09:13:30.964,2022-07-14 09:16:32.546,2 Ave & E 72 St,6925.09,E 72 St & York Ave,6889.12,40.7687620293096,-73.95840793848038,40.76663814,-73.95348296,member,2022-07-14,26.6
F8D010097009A07A,classic_bike,2022-01-09 19:16:10.455,2022-01-10 20:16:02.602,W 17 St & 8 Ave,6148.02,,,40.74177603,-74.00149746,,,member,2022-01-09,1.4
6C67BD1B171535EE,electric_bike,2022-04-25 15:52:45.254,2022-04-25 16:06:13.698,W 160 St & St. Nicholas Ave,8138.07,Frederick Douglass Blvd & W 117 St,7688.12,40.834468,-73.939865,40.805159,-73.954692,member,2022-04-25,10.4
796F43C633ABCE22,classic_bike,2022-04-13 17:54:52.376,2022-04-13 18:27:42.568,Albany Ave & Fulton St,4237.02,Nassau Ave & Newell St,5623.03,40.6800105,-73.938475,40.724812564400175,-73.94752621650696,member,2022-04-13,15.4
805AA46853B838D5,classic_bike,2022-05-16 17:16:51.528,2022-05-16 17:26:41.811,W 181 St & Riverside Dr,8381.04,W 168th S & Fort Washington Ave,8226.07,40.85168,-73.94186,40.84210236102173,-73.9422395825386,member,2022-05-16,20.4
FA485F2AA5B58776,classic_bike,2022-08-02 19:30:24.440,2022-08-02 19:38:19.706,Division St & Bowery,5270.08,Grand St & Samuel Dickstein Plaza,5335.07,40.714193,-73.996732,40.71511871996496,-73.98417055606842,member,2022-08-02,26.4
3FD13FC8C516AEB7,classic_bike,2022-05-23 13:33:15.780,2022-05-23 13:47:24.311,8 Ave & W 31 St,6450.05,Lexington Ave & E 29 St,6164.09,40.7505853470215,-73.9946848154068,40.74311555376486,-73.98215353488922,member,2022-05-23,21.0
E3A13AB5019AF586,electric_bike,2022-04-16 01:23:00.133,2022-04-16 01:32:14.922,E 30 St & Park Ave S,6206.08,8 Ave & W 49 St,6747.07,40.74444921,-73.98303529,40.76171227910671,-73.98655101656914,member,2022-04-16,15.7
F1B47F978002D8FA,electric_bike,2022-02-13 11:08:19.989,2022-02-13 11:20:50.677,Forsyth St & Canal St,5270.07,Schermerhorn St & Bond St,4479.08,40.7158155,-73.99422366,40.688417427540834,-73.98451656103134,member,2022-02-13,2.8
EC937A293E66A88F,electric_bike,2022-11-06 22:48:26.558,2022-11-06 23:06:17.683,Amsterdam Ave & W 73 St,7260.09,Lenox Ave & W 140 St,7872.03,40.77966809007312,-73.98093044757842,40.817245,-73.938787,member,2022-11-06,19.8
0DF851285E1C33D3,classic_bike,2022-09-02 00:01:23.592,2022-09-02 00:15:47.482,Pearl St & Hanover Square,4993.02,E 1 St & 1 Ave,5593.01,40.7047177,-74.00926027,40.72335597960796,-73.98864984512329,casual,2022-09-02,21.7
3137E1509C4988E5,classic_bike,2022-01-03 00:54:57.652,2022-01-03 01:02:49.354,E 118 St & Park Ave,7625.18,E 106 St & 1 Ave,7456.03,40.8005385,-73.9419949,40.7892529,-73.93956237,casual,2022-01-03,1.4
AF3696B70F96AD98,electric_bike,2022-04-29 21:21:57.194,2022-04-29 21:36:27.916,Willoughby Ave & Hall St,4611.03,Central Ave & Starr Street,4792.03,40.69196035,-73.96536851,40.700003,-73.92834,casual,2022-04-29,10.4
BA0AFBF296854B2A,classic_bike,2022-07-27 17:06:44.730,2022-07-27 17:18:49.589,Lafayette St & Jersey St,5561.06,West Broadway & Watts St,5569.07,40.72456089,-73.99565293,40.72323,-74.00314,casual,2022-07-27,25.5
4B0035C4004171B9,classic_bike,2022-08-23 10:05:41.199,2022-08-23 10:10:16.825,E 2 St & Avenue C,5476.03,Avenue C & E 18 St,5769.04,40.7208736,-73.98085795,40.730563,-73.973984,member,2022-08-23,25.9
5F5EDD5448E5CF00,classic_bike,2022-01-21 14:36:37.808,2022-01-21 14:42:13.791,W 82 St & Central Park West,7304.08,Central Park W & W 91 St,7453.01,40.78275,-73.97137,40.78866499127884,-73.96680057048798,member,2022-01-21,-6.0
E26A33908B14A02E,classic_bike,2022-04-02 12:45:02.405,2022-04-02 12:47:48.955,11 Ave & Prospect Ave,3538.09,Windsor Pl & Howard Pl,3579.04,40.65629,-73.977335,40.65949055893896,-73.98013919591904,member,2022-04-02,7.2
CEF8575CBF3D9B49,classic_bike,2022-09-23 16:24:48.173,2022-09-23 16:51:30.833,Garrison Ave & Manida St,7905.05,Garrison Ave & Manida St,7905.05,40.818743,-73.890247,40.818743,-73.890247,member,2022-09-23,15.1
EC0EC238FA74036F,electric_bike,2022-12-08 16:15:16.580,2022-12-08 16:24:22.362,W 27 St & 7 Ave,6247.06,W 44 St & 11 Ave,6756.05,40.746832132,-73.994388223,40.762009,-73.996975,member,2022-12-08,11.6
61226DB3F073A7E1,classic_bike,2022-03-19 08:14:08.350,2022-03-19 08:17:51.150,Spruce St & Nassau St,5137.10,Vesey St & Church St,5216.06,40.71146364,-74.00552427,40.71221958009051,-74.01047229766846,member,2022-03-19,13.1
0763B0104ED40C53,classic_bike,2022-03-25 17:40:22.340,2022-03-25 17:48:55.739,McGuinness Blvd & Eagle St,5977.01,Driggs Ave & N 9 St,5411.08,40.73555,-73.95284,40.71816969454208,-73.95520135760307,member,2022-03-25,9.6
70CABBAD40C004BA,electric_bike,2022-06-01 13:48:09.756,2022-06-01 13:55:17.521,W 42 St & 6 Ave,6517.08,5 Ave & E 29 St,6248.06,40.75492,-73.98455,40.7451677,-73.98683077,casual,2022-06-01,17.8
C0F6735D4F4E949E,electric_bike,2022-04-23 08:54:55.446,2022-04-23 08:56:00.082,E 81 St & 3 Ave,7154.07,E 81 St & Park Ave,7188.10,40.77573034,-73.9567526,40.77677702,-73.9590097,member,2022-04-23,13.3
A0500C7C8FA3D777,classic_bike,2022-09-15 18:29:22.170,2022-09-15 18:41:02.256,Prospect Park SW & 10 Ave,3611.02,Union St & 4 Ave,4175.15,40.659945,-73.977504,40.6772744,-73.98282002,member,2022-09-15,21.8
1CE9264600183A88,electric_bike,2022-07-19 20:31:04.303,2022-07-19 21:31:13.115,6 Ave & 21 St,3628.11,,,40.660189986,-73.990897655,40.65,-74.0,member,2022-07-19,28.2
0C9A06FCE6D9F196,classic_bike,2022-12-04 21:11:53.801,2022-12-04 21:23:11.178,Fulton St & Broadway,5175.08,Canal St & Rutgers St,5303.08,40.711066,-74.009447,40.71427487,-73.98990025,casual,2022-12-04,7.0
55A518F837C94DC0,classic_bike,2022-07-22 13:50:40.930,2022-07-22 13:57:20.523,31 St & 23 Ave,7144.01,Ditmars Blvd & 19 St,7291.06,40.7747878,-73.9125551,40.78145,-73.9183302,member,2022-07-22,30.9
98B50F67F4870DAC,classic_bike,2022-05-21 23:38:53.811,2022-05-21 23:49:23.910,Madison St & Woodward Ave,4954.07,Willoughby Ave & Onderdonk Ave,5115.05,40.70408,-73.90408,40.7098,-73.91727,member,2022-05-21,21.2
23C74B69638E266C,classic_bike,2022-02-04 18:53:37.958,2022-02-04 18:56:28.069,E 13 St & Avenue A,5779.09,E 6 St & Avenue B,5584.04,40.72966729392978,-73.98067966103554,40.72453734,-73.98185424,member,2022-02-04,5.8
FB9DF554E7E8DC60,classic_bike,2022-11-27 17:03:15.005,2022-11-27 17:13:34.032,E 45 St & 3 Ave,6464.08,1 Ave & E 68 St,6822.09,40.75255434,-73.97282625,40.76500525,-73.95818491,member,2022-11-27,10.7
BA425B4D756D5BAF,classic_bike,2022-08-11 18:32:33.295,2022-08-11 18:42:50.494,W 18 St & 6 Ave,6064.08,E 4 St & 2 Ave,5593.04,40.73971301,-73.99456405,40.7262807,-73.98978041,member,2022-08-11,26.6
27E0E01743FA51D6,electric_bike,2022-11-03 07:40:50.861,2022-11-03 07:43:11.301,Hudson St & Reade St,5359.10,Greenwich St & Hubert St,5470.10,40.716253042,-74.009453773,40.721319,-74.010065,member,2022-11-03,15.7
F64560E36F9C5C04,electric_bike,2022-04-23 20:07:58.216,2022-04-23 20:18:32.674,E 80 St & 2 Ave,7121.02,E 55 St & 2 Ave,6650.07,40.77391390238118,-73.9543953537941,40.75797322,-73.96603308,member,2022-04-23,13.3
35C96F1EDE6B1E95,electric_bike,2022-10-07 12:53:04.583,2022-10-07 13:01:32.530,Fulton St & Broadway,5175.08,Mott St & Prince St,5561.04,40.711066,-74.009447,40.72317958,-73.99480012,member,2022-10-07,20.3
CC240E7AB14C83A7,electric_bike,2022-12-03 19:15:45.147,2022-12-03 19:38:47.747,W 16 St & The High Line,6233.05,8 Ave & W 49 St,6747.07,40.74334935,-74.00681753,40.76171227910671,-73.98655101656914,member,2022-12-03,10.6
B28B7BA1F4F44E87,classic_bike,2022-03-29 10:27:55.974,2022-03-29 10:32:31.267,E 115 St & Lexington Ave,7599.09,Lenox Ave & W 115 St,7627.10,40.797911,-73.9423,40.8011939,-73.9500739,member,2022-03-29,-1.2
6221C062893ADA5D,classic_bike,2022-03-07 09:07:30.969,2022-03-07 09:35:03.125,West St & Chambers St,5329.03,W 45 St & 8 Ave,6676.02,40.71754834,-74.01322069,40.75929124,-73.98859651,member,2022-03-07,18.2
66FE2A64AB888732,electric_bike,2022-06-29 08:17:40.283,2022-06-29 08:22:35.339,Adam Clayton Powell Blvd & W 118 St,7670.09,5 Ave & E 103 St,7511.19,40.804372,-73.951475,40.7922553,-73.95249933,member,2022-06-29,23.9
D0BC201F08859A0F,electric_bike,2022-08-22 15:44:24.688,2022-08-22 15:57:04.699,Central Park W & W 91 St,7453.01,Amsterdam Ave & W 73 St,7260.09,40.78866499127884,-73.96680057048798,40.77966809007312,-73.98093044757842,member,2022-08-22,24.5
DA82F654B135FB41,classic_bike,2022-04-02 12:03:02.403,2022-04-02 12:10:31.454,Jackson Ave & 46 Rd,6203.02,28 St & 41 Ave,6462.19,40.74524768,-73.94733276,40.751047,-73.93797,member,2022-04-02,7.2
1E67E0241F488FDB,classic_bike,2022-10-17 17:55:28.928,2022-10-17 18:04:06.607,Henry St & Grand St,5294.04,E 5 St & Ave A,5626.06,40.714211,-73.981095,40.72479007746337,-73.98430064320564,member,2022-10-17,16.6
1365CE33FE4033ED,classic_bike,2022-12-09 23:03:31.269,2022-12-09 23:15:43.741,Metropolitan Ave & Stewart Ave,5273.01,Willoughby Ave & Myrtle Ave,4759.02,40.71401,-73.92793,40.69757,-73.93098,member,2022-12-09,5.3
11001657D8C7F167,electric_bike,2022-09-23 12:13:09.478,2022-09-23 12:16:40.169,5 Ave & 3 St,3987.06,President St & 4 Ave,4101.17,40.6728155,-73.98352355,40.676757,-73.983262,member,2022-09-23,15.1
4CEC61FA1328013C,electric_bike,2022-11-09 07:57:32.407,2022-11-09 08:02:51.135,Lafayette St & E 8 St,5788.13,W 21 St & 6 Ave,6140.05,40.730022788,-73.990610123,40.74173969,-73.99415556,member,2022-11-09,8.7
F98F237A6D8BB770,electric_bike,2022-08-03 17:42:59.009,2022-08-03 17:52:02.676,Broadway & E 21 St,6098.10,W 15 St & 10 Ave,6115.09,40.73988840858996,-73.98958593606949,40.74275382865903,-74.00747358798981,casual,2022-08-03,27.6
50D28DF8CC4F8E0A,classic_bike,2022-07-29 19:52:34.637,2022-07-29 20:33:00.696,MacDougal St & Washington Sq,5797.01,Riverside Blvd & W 67 St,7183.03,40.73226398,-73.99852205,40.777507027547976,-73.98888587951659,casual,2022-07-29,28.2
BE5D3123B0958C60,classic_bike,2022-11-26 19:28:43.715,2022-11-26 19:32:05.089,9 Ave & W 39 St,6644.08,W 41 St & 8 Ave,6602.03,40.756403523272496,-73.99410143494606,40.75640548,-73.9900262,member,2022-11-26,9.3
F315795C32462B68,electric_bike,2022-05-27 16:29:43.086,2022-05-27 16:36:54.876,8 Ave & W 38 St,6526.05,9 Ave & W 18 St,6190.08,40.75461,-73.99177,40.74317449,-74.00366443,member,2022-05-27,20.2
99F7EFD877E9B9B8,classic_bike,2022-12-07 07:11:00.262,2022-12-07 07:17:51.701,Clermont Ave & Lafayette Ave,4461.01,3 Ave & Schermerhorn St,4437.01,40.68764484,-73.96968902,40.68683208,-73.9796772,member,2022-12-07,13.8
F693ED42FCFC602F,classic_bike,2022-01-19 07:50:14.131,2022-01-19 07:55:41.712,E 12 St & 3 Ave,5788.12,Madison Ave & E 26 St,6131.12,40.73223272,-73.98889957,40.742684734875695,-73.98671329021454,member,2022-01-19,3.2
4807DF12040705F0,classic_bike,2022-06-11 13:51:34.765,2022-06-11 14:20:46.125,Calyer St & Guernsey St,5709.03,Leonard St & Maujer St,5148.03,40.72755807335852,-73.95505852997303,40.7103685423523,-73.94705951213837,member,2022-06-11,21.8
9F704DC9523BE1BE,electric_bike,2022-10-19 08:09:19.956,2022-10-19 08:24:45.317,Southern Blvd & E 172 St,8129.02,Grand Concourse & E 144 St,7845.06,40.837293148,-73.888347149,40.816576,-73.927987,casual,2022-10-19,10.0
8AB7919397C3B8A9,electric_bike,2022-11-05 17:21:11.440,2022-11-05 17:39:09.784,Alexander Ave & E 134 St,7712.04,W 146 St & Broadway,8018.09,40.80745697,-73.92723608,40.826969,-73.949738,member,2022-11-05,19.4
1FDF9116A9CE11F9,electric_bike,2022-12-05 18:21:56.832,2022-12-05 18:31:40.199,Wards Meadow Comfort Station,7327.01,Central Park W & W 97 St,7538.18,40.7829988,-73.930793881,40.79249519495111,-73.96417066463071,member,2022-12-05,5.4
CFF373FE289790AC,electric_bike,2022-02-14 17:34:15.524,2022-02-14 17:42:24.937,E 39 St & Lexington Ave,6389.09,W 39 St & 9 Ave,6644.04,40.7494985460252,-73.97729203113158,40.75645824,-73.99372222,member,2022-02-14,-4.3
7331E0E8B638F558,electric_bike,2022-05-14 23:47:03.758,2022-05-14 23:58:30.679,3 Ave & 14 St,3850.03,7 Ave & 41 St,3192.05,40.668709993,-73.993211627,40.647379,-74.000911,member,2022-05-14,17.9
9D1FD67A35D0110E,classic_bike,2022-10-23 15:13:00.592,2022-10-23 15:21:19.749,Rivington St & Ridge St,5406.02,Allen St & Rivington St,5414.06,40.71850211,-73.98329859,40.72019576,-73.98997825,casual,2022-10-23,14.7
ECE7E6C9F0987C50,classic_bike,2022-09-09 17:55:11.794,2022-09-09 18:07:04.397,W 27 St & 7 Ave,6247.06,W 35 St & 9 Ave,6569.09,40.746647,-73.993915,40.75414519263519,-73.9960889518261,casual,2022-09-09,21.9
21A84C4F97A9EBC1,classic_bike,2022-05-03 18:37:50.514,2022-05-03 18:54:21.456,Christopher St & Greenwich St,5847.01,Suffolk St & Stanton St,5445.02,40.73291553,-74.00711384,40.72066442,-73.98517977,casual,2022-05-03,12.4
115BE62B862039EE,electric_bike,2022-06-08 06:48:26.043,2022-06-08 07:06:52.595,Central Park W & W 97 St,7538.18,E 32 St & Park Ave,6280.12,40.79249519495111,-73.96417066463071,40.7457121,-73.98194829,member,2022-06-08,23.7
1B4CAC0CCF7D06E2,classic_bike,2022-06-23 12:16:14.955,2022-06-23 12:21:44.408,E 91 St & 2 Ave,7286.01,E 78 St & 2 Ave,7057.07,40.78115276427916,-73.94963040947914,40.7727966,-73.95577801,member,2022-06-23,19.2
9F1460666804E048,electric_bike,2022-12-01 08:58:43.096,2022-12-01 09:10:29.699,E 55 St & 2 Ave,6650.07,Broadway & W 38 St,6560.15,40.75797322,-73.96603308,40.7529728216068,-73.98734897375107,member,2022-12-01,5.7
B51377FE8B8C2938,electric_bike,2022-11-17 19:55:10.368,2022-11-17 20:06:56.676,Broad St & Bridge St,4962.08,Great Jones St,5636.11,40.70365182,-74.01167797,40.72743423,-73.99379025,member,2022-11-17,5.7
7B81C95568628F2B,electric_bike,2022-07-17 18:41:13.043,2022-07-17 19:03:19.642,Pike St & E Broadway,5270.05,Atlantic Ave & Furman St,4614.04,40.71406667,-73.99293911,40.69165183,-73.9999786,member,2022-07-17,25.7
82DCC678E37C2804,electric_bike,2022-11-09 14:20:01.910,2022-11-09 14:40:22.863,Riverside Dr & W 72 St,7288.04,Riverside Dr & W 138 St,7942.21,40.78057799010334,-73.98562431335449,40.823168,-73.955857,member,2022-11-09,8.7
3061715E30A45F05,classic_bike,2022-06-18 09:27:37.085,2022-06-18 10:05:19.747,W 11 St & 6 Ave,5914.03,1 Ave & E 68 St,6822.09,40.73532427,-73.99800419,40.76500525,-73.95818491,casual,2022-06-18,21.7
BDE94E6713BA11EC,classic_bike,2022-09-01 15:07:48.333,2022-09-01 15:36:40.111,Liberty St & Nassau St,5105.09,W 54 St & 11 Ave,6955.05,40.70858894240581,-74.00935482235809,40.768333,-73.992573,member,2022-09-01,25.9
1F23D96E64759566,classic_bike,2022-07-27 16:55:41.309,2022-07-27 17:01:32.610,6 Ave & W 45 St,6593.15,W 55 St & 6 Ave,6809.09,40.756951,-73.982631,40.763189,-73.978434,member,2022-07-27,25.5
9D6367BBA3D20C93,classic_bike,2022-06-19 18:58:47.395,2022-06-19 19:19:00.993,Plaza St East & Flatbush Ave,4010.01,10 St & 5 Ave,3842.08,40.673134,-73.969106,40.6686273,-73.98700053,member,2022-06-19,17.3
05791F7DE2D5973E,classic_bike,2022-04-14 18:13:15.218,2022-04-14 18:23:42.333,Broadway & W 29 St,6289.06,Lafayette St & E 8 St,5788.13,40.7462009,-73.98855723,40.73020660529954,-73.99102628231049,member,2022-04-14,16.3
4F9BFFD65CBB93B7,classic_bike,2022-03-07 16:03:34.548,2022-03-07 16:27:46.489,Wilson Ave & Troutman St,4864.09,DeKalb Ave & Franklin Ave,4528.01,40.70166,-73.92754,40.69064807082943,-73.95746178925037,member,2022-03-07,18.2
C1A27F06D32CE8D9,electric_bike,2022-09-15 16:44:48.807,2022-09-15 16:52:41.339,2 Ave & E 29 St,6122.09,E 47 St & 1 Ave,6498.09,40.74172351097472,-73.97809267044067,40.75206862,-73.96784384,casual,2022-09-15,21.8
6D6950E20B92FA2A,classic_bike,2022-11-16 12:36:51.085,2022-11-16 12:54:24.975,Old Slip & South St,4993.13,Vesey St & Church St,5216.06,40.70336686695866,-74.007867872715,40.71221958009051,-74.01047229766846,member,2022-11-16,7.3
0793D091A4771AC6,classic_bike,2022-06-06 08:23:35.232,2022-06-06 08:46:09.760,W 22 St & 8 Ave,6224.03,West St & Chambers St,5329.03,40.74475148,-73.99915362,40.71754834,-74.01322069,casual,2022-06-06,22.2
9F1F71B9F126D05A,classic_bike,2022-05-23 12:13:17.547,2022-05-23 13:48:07.088,Morgan Ave & Lombardy St,5503.01,Wythe Ave & Metropolitan Ave,5348.02,40.72226,-73.93889,40.716887,-73.963198,member,2022-05-23,21.0
5ABCB5225FF04FE1,classic_bike,2022-11-09 08:03:25.595,2022-11-09 08:07:55.839,11 Ave & W 41 St,6726.01,W 42 St & 8 Ave,6602.05,40.76030096,-73.99884222,40.7575699,-73.99098507,member,2022-11-09,8.7
5ACE5E499347E04A,electric_bike,2022-05-12 16:10:45.612,2022-05-12 16:25:47.865,West End Ave & W 107 St,7650.05,W 64 St & Thelonious Monk Circle,7123.04,40.8021174,-73.9681805305,40.77515953434235,-73.98918695747852,member,2022-05-12,17.1
E08FF5DC0F216C7F,electric_bike,2022-02-26 19:57:55.958,2022-02-26 20:17:07.906,Stagg St & Union Ave,5117.05,N 11 St & Kent Ave,5489.04,40.70877084,-73.95095259,40.72248188638219,-73.95921930670738,member,2022-02-26,-1.1
F774103F2A0FECFE,electric_bike,2022-05-04 08:31:04.510,2022-05-04 08:35:46.012,Bruckner Blvd & Bryant Ave,7944.11,Boone Ave & E 172 St,8110.04,40.821952,-73.888546,40.832649,-73.885272,member,2022-05-04,12.0
AD8FA6AA5A33EB98,classic_bike,2022-04-13 08:58:53.940,2022-04-13 09:04:26.931,Market St & Cherry St,5198.04,Forsyth St\t& Grand St,5382.07,40.71076228,-73.99400398,40.71779817737835,-73.99316132068634,member,2022-04-13,15.4
4791551754C5A760,electric_bike,2022-07-23 02:01:40.106,2022-07-23 02:07:51.581,Broadway & Kosciuszko St,4608.01,Fulton St & Utica Ave,4228.02,40.69329,-73.92852,40.6794268,-73.9298911,casual,2022-07-23,30.3
FB30A5193BBF9C32,classic_bike,2022-12-08 18:21:26.139,2022-12-08 18:32:44.167,E 14 St & 1 Ave,5779.10,Forsyth St & Broome St,5453.05,40.73139303364151,-73.98286700248718,40.71893904,-73.99266288,member,2022-12-08,11.6
D41946BED2A2C096,classic_bike,2022-11-06 18:35:26.691,2022-11-06 18:59:14.259,W 44 St & 5 Ave,6551.02,E 81 St & York Ave,7084.12,40.75500254,-73.98014437,40.7728384,-73.94989233,member,2022-11-06,19.8
163840C021284B17,classic_bike,2022-03-02 17:37:49.186,2022-03-02 17:49:48.067,E 77 St & 3 Ave,7092.06,Amsterdam Ave & W 73 St,7260.09,40.77314236,-73.95856158,40.77966809007312,-73.98093044757842,member,2022-03-02,7.7
720D33CAA6D602A3,electric_bike,2022-05-10 12:42:39.808,2022-05-10 12:57:39.297,Putnam Ave & Throop Ave,4392.04,S 4 St & Wythe Ave,5204.05,40.6851532,-73.94111,40.71285887,-73.96590294,member,2022-05-10,15.4
1E5DDD5EE4B74245,classic_bike,2022-06-30 17:36:21.855,2022-06-30 18:12:40.427,Riverside Dr & W 72 St,7288.04,11 Ave & W 27 St,6425.04,40.780578,-73.985624,40.751396,-74.005226,casual,2022-06-30,25.4
0A08E18690619739,classic_bike,2022-07-26 05:47:09.076,2022-07-26 06:01:03.752,E 84 St & Park Ave,7243.04,7 Ave & Central Park South,6912.01,40.77862688,-73.95772073,40.7667405590595,-73.9790689945221,member,2022-07-26,25.9
AA6689724E9E0C65,electric_bike,2022-03-08 17:56:15.380,2022-03-08 18:01:12.020,5 Ave & E 103 St,7511.19,Central Park North & Adam Clayton Powell Blvd,7617.07,40.7922553,-73.95249933,40.799484,-73.955613,member,2022-03-08,8.7
D93B1D1D880A538E,classic_bike,2022-05-22 16:34:44.705,2022-05-22 16:54:10.432,11 Ave & W 59 St,7059.01,11 Ave & W 59 St,7059.01,40.77149671054441,-73.99046033620834,40.77149671054441,-73.99046033620834,casual,2022-05-22,27.8
C7049A3DADF108BF,electric_bike,2022-07-13 17:04:31.102,2022-07-13 17:08:02.140,North Moore St & Greenwich St,5470.12,Vesey Pl & River Terrace,5297.02,40.72019521437465,-74.0103006362915,40.7153379,-74.01658354,member,2022-07-13,28.9
3AF1FB0832521E66,classic_bike,2022-04-13 17:40:01.610,2022-04-13 17:55:32.293,8 Ave & W 31 St,6450.05,W 64 St & Thelonious Monk Circle,7123.04,40.7505853470215,-73.9946848154068,40.77515953434235,-73.98918695747852,member,2022-04-13,15.4
C198288A571FD38E,classic_bike,2022-05-05 06:00:12.861,2022-05-05 06:11:35.863,E 30 St & Park Ave S,6206.08,E 3 St & 1 Ave,5553.03,40.74444921,-73.98303529,40.72467721,-73.98783413,member,2022-05-05,17.2
D6C9A9380610CD69,electric_bike,2022-04-06 20:00:51.341,2022-04-06 20:06:01.434,W 15 St & 6 Ave,5989.02,LaGuardia Pl & W 3 St,5721.14,40.738046142482766,-73.99642959237099,40.72917025,-73.99810231,member,2022-04-06,8.6
B27D713C93A549A2,classic_bike,2022-04-11 10:14:06.197,2022-04-11 10:29:48.425,9 Ave & W 22 St,6266.06,Grand St & Elizabeth St,5382.06,40.7454973,-74.00197139,40.718822,-73.99596,member,2022-04-11,8.8
A4B71B6A9B36806B,classic_bike,2022-11-06 19:42:14.014,2022-11-06 20:01:28.238,N 11 St & Kent Ave,5489.04,Meserole Ave & Manhattan Ave,5666.04,40.72248188638219,-73.95921930670738,40.72708584,-73.95299117,casual,2022-11-06,19.8
832AAB9012FF5F39,electric_bike,2022-11-18 08:51:58.392,2022-11-18 08:56:17.902,E 23 St & 1 Ave,5929.01,E 14 St & Avenue B,5736.09,40.736502,-73.97809472,40.72938685,-73.97772429,member,2022-11-18,4.5
CCA1596A4100618B,electric_bike,2022-09-22 15:02:41.260,2022-09-22 15:09:13.148,W 89 St & Columbus Ave,7432.09,Broadway & W 61 St,7014.12,40.788388014,-73.970686793,40.77003010255044,-73.9819684624672,member,2022-09-22,21.8
26561B6834A8E0EA,electric_bike,2022-01-14 14:47:21.423,2022-01-14 15:16:38.972,Lexington Ave & E 24 St,6089.07,Pacific St & Nevins St,4362.04,40.74025878,-73.98409214,40.6853761,-73.98302136,member,2022-01-14,4.8
6A3A89AE734AF8F4,classic_bike,2022-07-27 12:46:27.834,2022-07-27 12:51:50.238,24 Ave & 26 St,7152.10,Newtown Ave & 23 St,7026.08,40.774591,-73.918544,40.7713615,-73.9246145,member,2022-07-27,25.5
CBCBAE91DBE1818E,classic_bike,2022-07-20 06:50:54.391,2022-07-20 07:02:39.049,E 54 St & 1 Ave,6608.09,W 51 St & 6 Ave,6740.10,40.756265,-73.964179,40.7606597,-73.98042047,member,2022-07-20,31.3
EABD82862B46C8E6,classic_bike,2022-06-08 17:41:48.561,2022-06-08 18:18:18.747,Broadway\t& W 48 St,6708.04,Vesey Pl & River Terrace,5297.02,40.76017739537783,-73.98486793041229,40.7153379,-74.01658354,member,2022-06-08,23.7
FEFF12B2D01E96D0,classic_bike,2022-10-19 08:15:47.821,2022-10-19 08:24:14.285,South St & Gouverneur Ln,4953.04,West St & Liberty St,5184.08,40.70355377,-74.00670227,40.711444,-74.014847,member,2022-10-19,10.0
529A4C8A365F030E,classic_bike,2022-07-03 04:23:16.166,2022-07-03 04:37:59.362,Wyckoff Av & Stanhope St,4931.05,Stephen St & Seneca Ave,4798.10,40.703545,-73.917775,40.6988,-73.9007,casual,2022-07-03,26.9
9C9EC7E4E89847AA,classic_bike,2022-04-14 08:24:52.955,2022-04-14 08:28:06.524,Carroll St & Bond St,4184.07,Bond St & Bergen St,4404.10,40.6786115,-73.99037292,40.6849668,-73.98620772,member,2022-04-14,16.3
8FC41B9C1C0F7ACA,electric_bike,2022-02-27 10:44:51.434,2022-02-27 10:48:04.368,Shakespeare Ave & W 169 St,8198.05,River Ave & McClellan St,8111.07,40.839312,-73.922423,40.83406,-73.92243,casual,2022-02-27,2.4
7E865BF43F60CE60,classic_bike,2022-10-21 18:39:57.574,2022-10-21 18:47:39.163,E 22 St & 2 Ave,5971.09,E 4 St & 2 Ave,5593.04,40.73716919369882,-73.98122549057007,40.7262807,-73.98978041,member,2022-10-21,13.4
9EC8E6EEEDC40D82,classic_bike,2022-10-02 19:39:05.904,2022-10-02 19:41:49.311,Ave A & E 14 St,5779.11,E 12 St & Ave C,5616.08,40.73031071000895,-73.98047178983688,40.727243,-73.976831,member,2022-10-02,15.2
8A940AE495E6E199,electric_bike,2022-02-08 17:05:38.232,2022-02-08 17:56:15.745,21 Ave & 80 St,7060.02,Ditmars Blvd & 79 St,6994.06,40.770888,-73.889914,40.768728,-73.890745,casual,2022-02-08,4.1
51EAB03D27985311,classic_bike,2022-10-23 10:44:49.795,2022-10-23 10:58:09.810,Maiden Ln & Pearl St,5065.10,St Marks Pl & 1 Ave,5626.13,40.70706456,-74.00731853,40.72779126,-73.98564945,member,2022-10-23,14.7
CF357F7B0B6E15F4,classic_bike,2022-04-22 18:22:25.333,2022-04-22 18:55:29.293,University Pl & E 14 St,5905.14,W 82 St & Central Park West,7304.08,40.734814,-73.992085,40.78275,-73.97137,member,2022-04-22,14.6
21D50A5FF8481930,classic_bike,2022-07-20 19:49:00.954,2022-07-20 20:04:17.928,6 Ave & W 45 St,6593.15,E 16 St & 5 Ave,6022.04,40.756951,-73.982631,40.73726186,-73.99238967,member,2022-07-20,31.3
BED8C4148D8126A3,electric_bike,2022-10-06 08:01:13.254,2022-10-06 08:05:08.368,1 Ave & E 44 St,6379.03,FDR Drive & E 35 St,6230.04,40.75001986,-73.96905301,40.744219,-73.97121214,member,2022-10-06,17.6
124CCF40D54D21C2,classic_bike,2022-12-09 15:05:28.050,2022-12-09 15:37:33.280,W 31 St & 7 Ave,6331.01,Christopher St & Greenwich St,5847.01,40.749156,-73.9916,40.73291553,-74.00711384,member,2022-12-09,5.3
7EED3AFBA0424658,classic_bike,2022-05-24 11:18:14.270,2022-05-24 11:31:20.956,E 19 St & 3 Ave,5938.01,6 Ave & W 33 St,6364.07,40.73624527,-73.98473765,40.74901271,-73.98848395,member,2022-05-24,17.4
BDA91528BBF3F0C0,electric_bike,2022-04-09 12:36:15.761,2022-04-09 12:43:09.676,E 72 St & York Ave,6889.12,E 72 St & York Ave,6889.12,40.76663814,-73.95348296,40.76663814,-73.95348296,casual,2022-04-09,11.4
F50F97096746EA74,classic_bike,2022-03-23 16:10:26.381,2022-03-23 16:48:47.222,10 Ave & W 14 St,6157.04,Norfolk St & Broome St,5374.01,40.74198159994023,-74.00831580162048,40.7172274,-73.98802084,member,2022-03-23,7.2
13479BD5F0821987,electric_bike,2022-07-18 00:57:07.845,2022-07-18 01:16:05.812,Fulton St & Clermont Ave,4386.05,Sullivan Pl & Franklin Ave,3704.08,40.684421659,-73.969813585,40.66407983678161,-73.96025128666679,member,2022-07-18,26.2
24045C9AA29DF4A0,classic_bike,2022-08-07 11:07:58.660,2022-08-07 11:11:00.621,Hancock St & Bedford Ave,4255.05,Lexington Ave & Classon Ave,4452.03,40.68216564,-73.95399026,40.68676793,-73.95928168,member,2022-08-07,29.6
370B4024A6C34737,classic_bike,2022-06-12 19:34:50.295,2022-06-12 19:56:18.075,West St & Liberty St,5184.08,10 Ave & W 14 St,6157.04,40.711444,-74.014847,40.74198159994023,-74.00831580162048,casual,2022-06-12,20.5
4148D73E5E4207D2,classic_bike,2022-09-20 09:06:59.356,2022-09-20 09:25:23.077,Central Park North & Adam Clayton Powell Blvd,7617.07,W 87 St & Amsterdam Ave,7458.03,40.799484,-73.955613,40.78839,-73.9747,member,2022-09-20,23.2
CFA608C810E4C765,classic_bike,2022-09-24 02:56:43.125,2022-09-24 03:00:14.102,St James Pl & Oliver St,5238.05,Cliff St & Fulton St,5065.14,40.71307916,-73.99851193,40.70838,-74.00495,member,2022-09-24,14.5
A5A2009723D01C29,electric_bike,2022-10-06 22:19:51.319,2022-10-06 22:35:10.831,Hoyt St & Warren St,4330.09,Lefferts Pl & Franklin Ave,4222.02,40.6843549,-73.98901629,40.680342423,-73.9557689392,casual,2022-10-06,17.6
C5783093C08EB423,classic_bike,2022-05-22 21:06:52.855,2022-05-22 21:30:25.336,E 5 St & Cooper Sq,5712.12,St James Pl & Oliver St,5238.05,40.72769,-73.990993,40.71307916,-73.99851193,member,2022-05-22,27.8
5F9CFF2B5536B258,electric_bike,2022-05-11 22:56:49.166,2022-05-11 23:13:18.246,Emerson Pl & Myrtle Ave,4683.02,Madison St & Clinton St,5190.07,40.69363137,-73.96223558,40.71269042,-73.98776323,member,2022-05-11,16.1
92F94F1F97EB02CE,classic_bike,2022-04-04 19:32:24.849,2022-04-04 19:37:20.557,38 Ave & 29 St,6538.11,35 Ave & 37 St,6563.12,40.75473,-73.93367,40.7557327,-73.9236611,member,2022-04-04,7.6
EA2C0528E2BC4D13,classic_bike,2022-02-04 21:11:48.582,2022-02-04 21:13:59.251,E Houston St & Columbia St,5436.11,Avenue D & E 3 St,5436.09,40.71978635452822,-73.97871628403664,40.72082834,-73.97793172,member,2022-02-04,5.8
ED2C00FF63494436,electric_bike,2022-05-05 19:13:36.287,2022-05-05 19:27:22.052,E 78 St & 2 Ave,7057.07,W 70 St & Amsterdam Ave,7207.08,40.7727966,-73.95577801,40.77748046,-73.98288594,casual,2022-05-05,17.2
D6450F9C356D464A,electric_bike,2022-04-17 16:27:10.729,2022-04-17 16:49:28.662,West End Ave & W 60 St,7059.08,E 81 St & 3 Ave,7154.07,40.77237,-73.99005,40.77573034,-73.9567526,member,2022-04-17,8.3
E107676B0D3EA63E,classic_bike,2022-08-11 17:08:25.968,2022-08-11 17:23:39.046,E 153 St & E 157 St,8025.01,E 149 St & Morris Ave,7863.03,40.826677,-73.929327,40.81734,-73.922962,casual,2022-08-11,26.6
B9F29397F783E1AF,classic_bike,2022-06-28 20:03:02.421,2022-06-28 20:09:40.649,Allen St & Rivington St,5414.06,West Broadway & Watts St,5569.07,40.72019576,-73.98997825,40.72323,-74.00314,member,2022-06-28,22.4
EB48C8598F50936C,electric_bike,2022-08-17 10:43:18.180,2022-08-17 10:51:27.370,W 34 St & 11 Ave,6578.01,9 Ave & W 18 St,6190.08,40.755988717,-74.002226114,40.74317449,-74.00366443,member,2022-08-17,23.6
5A5531A4AC765D0D,classic_bike,2022-04-05 18:36:12.643,2022-04-05 18:52:45.863,John St & William St,5065.04,Pier 40 - Hudson River Park,5696.03,40.70862144,-74.00722156,40.7277140777778,-74.01129573583603,member,2022-04-05,9.7
2428E306402ECE8A,electric_bike,2022-09-11 14:58:43.422,2022-09-11 15:03:54.429,E 27 St & Park Ave S,6131.13,E 17 St & 2 Ave,5896.01,40.74275179648995,-73.9847157150507,40.73431166276575,-73.98372530937195,member,2022-09-11,23.2
EA2C7401AB32C927,classic_bike,2022-04-23 19:38:53.766,2022-04-23 19:44:49.512,N 6 St & Bedford Ave,5379.10,S 4 St & Wythe Ave,5204.05,40.71745169,-73.95850939,40.71285887,-73.96590294,casual,2022-04-23,13.3
6F65C4DAA60F8460,classic_bike,2022-09-26 13:32:30.772,2022-09-26 13:46:46.306,West St & Liberty St,5184.08,Lispenard St & Broadway,5391.06,40.711444,-74.014847,40.71939226,-74.00247214,casual,2022-09-26,19.4
FA78FE8CE1C7E2BE,classic_bike,2022-09-18 11:39:33.410,2022-09-18 11:45:13.512,W 64 St & Thelonious Monk Circle,7123.04,W 54 St & 11 Ave,6955.05,40.77515953434235,-73.98918695747852,40.768333,-73.992573,member,2022-09-18,23.4
24986C0D512943A5,classic_bike,2022-08-13 16:39:39.460,2022-08-13 16:47:09.265,1 Ave & E 78 St,7020.09,3 Ave & E 62 St,6762.04,40.77140426,-73.9535166,40.76312584,-73.96526895,member,2022-08-13,23.1
673C17E7093E210E,electric_bike,2022-03-24 08:17:52.098,2022-03-24 08:28:41.710,11 Ave & Prospect Ave,3538.09,11 Ave & Prospect Ave,3538.09,40.65629,-73.977335,40.65629,-73.977335,member,2022-03-24,5.7
1A586136BC14E89A,electric_bike,2022-06-09 20:59:57.606,2022-06-09 22:24:08.816,Loring Pl North & W 183 St,8555.05,Loring Pl North & W 183 St,8555.05,40.8604244,-73.9093359997,40.8604244,-73.9093359997,member,2022-06-09,24.4
3AD9B6FD1C152B1C,classic_bike,2022-09-26 07:14:04.645,2022-09-26 07:25:44.543,W 67 St & Broadway,7116.04,E 72 St & York Ave,6889.12,40.77492513,-73.98266566,40.76663814,-73.95348296,member,2022-09-26,19.4
C96AE3E83BCBD510,classic_bike,2022-05-20 20:29:37.339,2022-05-20 20:37:48.419,W 106 St & Amsterdam Ave,7634.01,W 116 St & Broadway,7713.11,40.8008363,-73.9664492472,40.8082,-73.9641,member,2022-05-20,15.4
E03A1DCF5BD6B42D,classic_bike,2022-12-21 09:31:39.313,2022-12-21 09:39:41.099,W 29 St & 9 Ave,6416.06,W 18 St & 6 Ave,6064.08,40.7500727,-73.99839279,40.73971301,-73.99456405,member,2022-12-21,1.0
A73702C07EB67F78,electric_bike,2022-07-11 07:11:01.090,2022-07-11 07:15:20.249,Lewis Ave & Madison St,4425.02,Fulton St & Utica Ave,4228.02,40.686312,-73.935775,40.6794268,-73.9298911,member,2022-07-11,24.0
26A92C23279438D6,classic_bike,2022-06-29 15:56:26.771,2022-06-29 16:03:08.647,Washington Square E,5755.09,Greenwich Ave & 8 Ave,6072.06,40.73049393,-73.9957214,40.7390169121,-74.0026376103,member,2022-06-29,23.9
287413AE04A48924,electric_bike,2022-08-31 21:18:08.149,2022-08-31 21:41:08.804,Washington Pl & 6 Ave,5838.09,W 53 St & 10 Ave,6890.01,40.732135534,-74.000334978,40.76669671,-73.99061728,member,2022-08-31,25.6
1D2910936A12ED7A,classic_bike,2022-07-04 10:45:50.117,2022-07-04 10:51:39.984,E 7 St & Avenue A,5626.07,Canal St & Rutgers St,5303.08,40.72621788,-73.98379855,40.71427487,-73.98990025,member,2022-07-04,25.6
A08F67C828F0A393,classic_bike,2022-09-15 20:07:39.120,2022-09-15 20:24:18.623,6 Ave & Broome St,5610.09,8 Ave & W 33 St,6450.12,40.72431,-74.00473,40.751551,-73.993934,member,2022-09-15,21.8
29F354E0A28F1963,classic_bike,2022-06-30 17:56:25.315,2022-06-30 18:07:38.082,Pierrepont St & Monroe Pl,4718.08,Butler St & Court St,4339.01,40.69535693320225,-73.99344027042389,40.6849894,-73.99440329,casual,2022-06-30,25.4
AF9E1FC3F5F60E1A,electric_bike,2022-09-17 16:01:58.599,2022-09-17 16:55:04.868,S 4 St & Wythe Ave,5204.05,Atlantic Ave & Furman St,4614.04,40.712930918,-73.965987444,40.69165183,-73.9999786,casual,2022-09-17,20.8
35E13914F6A26E31,classic_bike,2022-02-28 15:50:42.141,2022-02-28 15:55:09.000,Broadway & W 36 St,6441.01,6 Ave & W 45 St,6593.15,40.75097711,-73.98765428,40.756951,-73.982631,member,2022-02-28,0.8
347430B77BC7E1B4,electric_bike,2022-09-08 14:45:02.414,2022-09-08 14:51:16.444,W 31 St & 7 Ave,6331.01,W 13 St & 7 Ave,6030.04,40.749156,-73.9916,40.73781509,-73.99994661,member,2022-09-08,21.8
6D2FDF638D00B78C,classic_bike,2022-08-30 20:30:04.077,2022-08-30 20:34:54.436,W 24 St & 7 Ave,6257.03,W 25 St & 6 Ave,6215.04,40.74487634,-73.99529885,40.74395411,-73.99144871,member,2022-08-30,26.8
F06BDD24A1E7C543,classic_bike,2022-12-06 11:21:48.714,2022-12-06 11:23:47.114,E 85 St & 3 Ave,7212.05,E 84 St & Park Ave,7243.04,40.77801203,-73.95407149,40.77862688,-73.95772073,member,2022-12-06,9.3
8ED5D70017B038AE,electric_bike,2022-03-16 12:55:40.004,2022-03-16 13:09:27.356,Broadway & W 131 St,7865.09,2 Ave & E 122 St,7622.12,40.817555,-73.957163,40.8006721,-73.9349,casual,2022-03-16,13.6
EDF45CFB06FED599,classic_bike,2022-07-24 16:03:11.556,2022-07-24 16:11:39.808,Central Park North & Adam Clayton Powell Blvd,7617.07,5 Ave & E 93 St,7372.10,40.799484,-73.955613,40.7857851,-73.957481,member,2022-07-24,31.1
401650B0F16591F8,classic_bike,2022-10-15 10:24:42.487,2022-10-15 10:29:22.465,Madison Ave & E 26 St,6131.12,E 20 St & 2 Ave,5971.08,40.742684734875695,-73.98671329021454,40.73587678,-73.98205027,member,2022-10-15,16.2
1579FC02F43CB2ED,electric_bike,2022-12-15 10:55:34.350,2022-12-15 10:59:47.700,W 36 St & 9 Ave,6569.07,9 Ave & W 22 St,6266.06,40.754588604,-73.995137095,40.7454973,-74.00197139,member,2022-12-15,2.7
374CC43F8709BADD,classic_bike,2022-09-02 18:34:00.147,2022-09-02 18:58:06.100,Water St & Main St,4936.14,E 1 St & 1 Ave,5593.01,40.703212,-73.990409,40.72335597960796,-73.98864984512329,casual,2022-09-02,21.7
4B5BA23BA6A7CCA6,electric_bike,2022-11-11 23:23:26.785,2022-11-11 23:37:33.312,West St & Liberty St,5184.08,Clark St & Henry St,4789.03,40.711752176,-74.014494419,40.69760127,-73.99344559,member,2022-11-11,16.4
2DA322530C1DD174,classic_bike,2022-04-13 10:30:05.147,2022-04-13 10:42:49.313,E 51 St & Lexington Ave,6659.01,W 31 St & 7 Ave,6331.01,40.75714758,-73.97207836,40.749156,-73.9916,member,2022-04-13,15.4
BF03455FBAC70B58,classic_bike,2022-12-01 17:38:54.232,2022-12-01 18:00:10.002,W 22 St & 10 Ave,6306.06,Allen St & Stanton St,5484.09,40.74691959,-74.00451887,40.722055,-73.989111,member,2022-12-01,5.7
09FCCB461340E4B3,classic_bike,2022-08-08 20:00:37.784,2022-08-08 20:42:07.413,W 45 St & 8 Ave,6676.02,Riverside Dr & W 153 St,8108.02,40.75929124,-73.98859651,40.832164,-73.949702,member,2022-08-08,30.3
0C5699E325971273,electric_bike,2022-09-02 19:00:52.139,2022-09-02 19:07:03.202,6 Ave & W 33 St,6364.07,E 40 St & 5 Ave,6474.11,40.74901271,-73.98848395,40.752062307,-73.9816324043,casual,2022-09-02,21.7
DC48F38DADAADF82,electric_bike,2022-06-30 05:33:39.852,2022-06-30 05:41:29.814,W 104 St & Amsterdam Ave,7610.13,Mt Morris Park W & W 120 St,7685.14,40.79904139288298,-73.96649479866028,40.804038,-73.945925,casual,2022-06-30,25.4
EA01727B8DE8ADFC,electric_bike,2022-05-05 17:06:48.392,2022-05-05 17:19:06.597,W 40 St & 5 Ave,6474.02,E 22 St & 2 Ave,5971.09,40.752269,-73.982079,40.73716919369882,-73.98122549057007,member,2022-05-05,17.2
CEDA2E33514DA4B6,classic_bike,2022-05-08 18:08:29.767,2022-05-08 18:20:13.057,E 1 St & 1 Ave,5593.01,W 13 St & 7 Ave,6030.04,40.72335597960796,-73.98864984512329,40.73781509,-73.99994661,member,2022-05-08,10.4
B01877D40BCEE27F,classic_bike,2022-06-03 08:07:29.314,2022-06-03 08:14:40.512,11 Ave & W 41 St,6726.01,W 47 St & 6 Ave,6667.04,40.76030096,-73.99884222,40.758397,-73.98255,member,2022-06-03,19.5
193B9B7CC15AE7BA,electric_bike,2022-06-27 08:55:17.110,2022-06-27 09:16:03.288,Berkeley Pl & 6 Ave,4134.06,Stagg St & Union Ave,5117.05,40.6765304,-73.97846879,40.70877084,-73.95095259,member,2022-06-27,24.3
976B453B57DE6F45,electric_bike,2022-06-28 13:00:15.039,2022-06-28 13:03:12.083,10 Ave & W 28 St,6459.04,W 37 St & 10 Ave,6611.02,40.750356317,-74.002001047,40.75660359,-73.9979009,member,2022-06-28,22.4
B8ABF5369F180225,classic_bike,2022-06-27 23:05:07.866,2022-06-27 23:34:24.952,11 Ave & W 27 St,6425.04,Pier 40 - Hudson River Park,5696.03,40.751396,-74.005226,40.7277140777778,-74.01129573583603,casual,2022-06-27,24.3
F7C9973A24F67F74,electric_bike,2022-04-03 09:58:28.591,2022-04-03 10:01:20.534,1 Ave & E 62 St,6753.08,E 54 St & 1 Ave,6608.09,40.7612274,-73.96094022,40.756265,-73.964179,member,2022-04-03,7.0
258D346C636C7FBF,classic_bike,2022-04-10 17:02:18.643,2022-04-10 17:35:05.426,W 20 St & 10 Ave,6306.01,12 Ave & W 125 St,7886.02,40.745686,-74.005141,40.818299,-73.960405,member,2022-04-10,8.6
4B6A43781FA78679,electric_bike,2022-04-16 11:24:38.392,2022-04-16 11:40:58.517,Hudson St & N Moore St,5470.13,E 31 St & 3 Ave,6239.08,40.71988799798129,-74.0086269378662,40.74394314,-73.97966069,member,2022-04-16,15.7
52E520586D9AD638,classic_bike,2022-07-13 16:58:26.767,2022-07-13 17:23:47.219,W 87 St & Amsterdam Ave,7458.03,Amsterdam Ave & W 66 St,7149.05,40.78839,-73.9747,40.7746671,-73.98470567,member,2022-07-13,28.9
E631DE19F634F7C0,electric_bike,2022-12-09 08:43:06.049,2022-12-09 08:47:44.067,W 64 St & Thelonious Monk Circle,7123.04,West End Ave & W 78 St,7340.07,40.77515953434235,-73.98918695747852,40.783786,-73.981687,member,2022-12-09,5.3
6D0D52C6F54870EA,electric_bike,2022-12-01 15:54:37.478,2022-12-01 16:12:05.366,W 26 St & 10 Ave,6382.05,E 17 St & Broadway,5980.07,40.749708652,-74.003001094,40.73704984,-73.99009296,casual,2022-12-01,5.7
BAE3E3AE7D691901,classic_bike,2022-06-10 14:31:50.396,2022-06-10 14:56:42.082,South St & Gouverneur Ln,4953.04,Christopher St & Greenwich St,5847.01,40.70355377,-74.00670227,40.73291553,-74.00711384,casual,2022-06-10,21.8
A63490A163382224,electric_bike,2022-07-30 20:14:17.759,2022-07-30 20:25:44.381,W 12 St & Hudson St,5997.10,Ave A & E 11 St,5703.13,40.737583399,-74.005109191,40.72854745023944,-73.98175925016403,member,2022-07-30,26.7
F8C7CA8D3AA0A324,classic_bike,2022-01-16 17:34:26.160,2022-01-16 17:46:07.427,3 Ave & E 112 St,7543.15,5 Ave & E 103 St,7511.19,40.795508,-73.941606,40.7922553,-73.95249933,member,2022-01-16,-8.0
AF1244C532FD8793,electric_bike,2022-11-02 17:49:51.314,2022-11-02 17:55:44.283,LaGuardia Pl & W 3 St,5721.14,E 2 St & Avenue B,5515.02,40.72917025,-73.99810231,40.72217444,-73.98368779,member,2022-11-02,17.6
E00BC448B27A78F7,electric_bike,2022-10-06 10:51:00.489,2022-10-06 10:57:08.755,William St & Pine St,5065.12,Franklin St & W Broadway,5430.08,40.707141399,-74.008904576,40.71911552,-74.00666661,member,2022-10-06,17.6
D4EA0C40B307A4AB,electric_bike,2022-09-01 21:27:01.165,2022-09-01 22:03:06.083,Greene Ave & Throop Ave,4510.04,Parade Pl & Crooke Ave,3376.02,40.689571381,-73.942014098,40.651847,-73.965248,casual,2022-09-01,25.9
185FE1B501A06EB3,classic_bike,2022-01-08 18:58:41.447,2022-01-08 19:27:24.244,St Marks Pl & 2 Ave,5669.10,Warren St & Smith St,4371.01,40.7284186,-73.98713956,40.68542400997018,-73.99127773940563,member,2022-01-08,-2.5
0CA76C215159DF3C,classic_bike,2022-11-08 04:29:40.490,2022-11-08 04:31:52.751,Lewis Ave & Kosciuszko St,4617.01,Myrtle Ave & Lewis Ave,4729.01,40.69237074,-73.93705428,40.69681963,-73.93756926,member,2022-11-08,13.2
0E776E28DF8A7C4E,classic_bike,2022-12-30 09:49:41.542,2022-12-30 09:53:18.681,W 44 St & 5 Ave,6551.02,E 47 St & Park Ave,6584.12,40.75500254,-73.98014437,40.75510267,-73.97498696,member,2022-12-30,9.3
D71C0079B3AFE0AC,electric_bike,2022-11-16 16:14:31.989,2022-11-16 16:16:50.253,St Mary's St & Jackson Ave,7737.06,E 138 St & Cypress Ave,7669.10,40.80889833,-73.910859108,40.805559,-73.914718,member,2022-11-16,7.3
541E9A1A32CEB803,classic_bike,2022-10-07 16:00:40.840,2022-10-07 16:12:41.836,E 53 St & Lexington Ave,6617.09,W 42 St & 8 Ave,6602.05,40.75828065,-73.97069431,40.7575699,-73.99098507,member,2022-10-07,20.3
CD93C17B39C4ED2E,classic_bike,2022-04-08 22:08:25.353,2022-04-08 22:13:51.108,Clinton St & Joralemon St,4605.04,Dean St & Hoyt St,4446.05,40.69239502,-73.99337909,40.6864442,-73.98759104,member,2022-04-08,12.8
0B3A2105ABB026B8,classic_bike,2022-01-18 08:50:12.906,2022-01-18 08:53:57.234,W 59 St & 10 Ave,7023.04,W 70 St & Amsterdam Ave,7207.08,40.770513,-73.988038,40.77748046,-73.98288594,member,2022-01-18,1.8
EE9B45629825B1CD,electric_bike,2022-03-07 13:58:19.350,2022-03-07 14:13:00.331,Monroe St & Tompkins Ave,4434.06,Jefferson Ave & Evergreen Ave,4517.03,40.686203,-73.944694,40.68989,-73.91458,casual,2022-03-07,18.2
B30F72ECF21FC909,classic_bike,2022-12-07 07:14:12.518,2022-12-07 07:40:51.923,Old Fulton St,4903.08,Sigourney St & Columbia St,3940.04,40.70277159,-73.99383605,40.67267243410948,-74.0087952464819,member,2022-12-07,13.8
3166FA4898C44FA6,electric_bike,2022-02-17 17:57:37.778,2022-02-17 18:09:52.238,Bank St & Hudson St,5922.08,Little West St & 1 Pl,5001.08,40.73652889,-74.00618026,40.70569254,-74.01677685,member,2022-02-17,11.6
E5F6876C42BF1A33,electric_bike,2022-09-10 08:37:03.236,2022-09-10 08:58:04.041,MacDougal St & Washington Sq,5797.01,South St & Whitehall St,4846.01,40.73226398,-73.99852205,40.70122128,-74.01234218,member,2022-09-10,23.6
4766CEBFC0F6A622,electric_bike,2022-07-19 11:52:04.442,2022-07-19 12:08:42.148,Washington St & Laight St,5509.02,Old Slip & South St,4993.13,40.72231,-74.0106,40.70336686695866,-74.007867872715,casual,2022-07-19,28.2
DF506CB35488C2BA,electric_bike,2022-09-06 16:49:57.283,2022-09-06 17:03:47.163,E 128 St & Madison Ave,7735.23,Broadway & W 160 St,8157.06,40.80756,-73.939182,40.835775,-73.9434,member,2022-09-06,23.3
1C50CFFC1E684543,classic_bike,2022-04-04 19:22:50.087,2022-04-04 19:49:47.468,Kosciuszko St & Nostrand Ave,4519.04,14 St & 5 Ave,3771.06,40.69072549,-73.95133465,40.666287,-73.98895053,member,2022-04-04,7.6
7185A0FD32607F59,electric_bike,2022-11-10 14:38:08.523,2022-11-10 14:53:56.374,E 40 St & Park Ave,6432.11,W 15 St & 7 Ave,6030.06,40.750689149,-73.978273988,40.73935542,-73.99931783,member,2022-11-10,12.6
FFA7D2F8A68BBAE6,electric_bike,2022-04-27 23:41:58.374,2022-04-27 23:46:22.712,W 144 St & Adam Clayton Powell Blvd,7932.10,Adam Clayton Powell Blvd & W 126 St,7738.04,40.820877,-73.939249,40.80949534777948,-73.94776493310928,member,2022-04-27,11.6
9C88120F733DB7FF,electric_bike,2022-02-04 15:21:26.899,2022-02-04 15:34:39.581,St James Pl & Oliver St,5238.05,S 3 St & Bedford Ave,5235.05,40.71307916,-73.99851193,40.71260486,-73.96264403,member,2022-02-04,5.8
0C2F03B0A95CD6D9,classic_bike,2022-05-16 12:17:39.231,2022-05-16 16:43:10.351,Butler St & Court St,4339.01,Broadway & W 53 St,6779.05,40.684989,-73.994403,40.763441,-73.982681,casual,2022-05-16,20.4
3B507D80B9C24A44,classic_bike,2022-07-20 06:00:38.809,2022-07-20 06:08:03.470,E 7 St & Ave B,5584.05,Allen St & Stanton St,5484.09,40.7251285241158,-73.98131668567657,40.722055,-73.989111,member,2022-07-20,31.3
2F53C3F3A892FBCB,electric_bike,2022-03-04 10:42:40.928,2022-03-04 10:50:25.216,Pike St & E Broadway,5270.05,Sands St & Jay St,4821.03,40.71406667,-73.99293911,40.700119,-73.9862,member,2022-03-04,-1.9
A97A66EDF41DB0FF,electric_bike,2022-07-29 16:53:55.407,2022-07-29 17:01:05.213,Flushing Ave & Woodward Ave,5225.02,Bushwick Ave & Powers St,5250.05,40.71246,-73.91873,40.71247661,-73.94100005,member,2022-07-29,28.2
4CAFCE276132E436,classic_bike,2022-05-04 19:20:50.521,2022-05-04 19:22:47.864,Huron St & Franklin St,5869.04,Franklin St & Dupont St,5944.01,40.73266,-73.95826,40.73564,-73.95866,member,2022-05-04,12.0
C1B1DEEED1ADD168,classic_bike,2022-10-30 10:33:12.000,2022-10-30 10:39:35.894,34 St & 38 Ave,6453.02,34 Ave & 48 St,6554.05,40.752443,-73.929737,40.75388,-73.914952,casual,2022-10-30,12.5
25A791ACDB187489,electric_bike,2022-02-26 17:10:53.507,2022-02-26 17:36:42.273,Allen St & Rivington St,5414.06,W 22 St & 10 Ave,6306.06,40.72019576,-73.98997825,40.74691959,-74.00451887,casual,2022-02-26,-1.1
727FE50B6D23C71E,electric_bike,2022-11-24 14:01:39.122,2022-11-24 14:36:10.644,Ave A & E 11 St,5703.13,W 111 St & 5 Ave,7587.16,40.728681207,-73.981812835,40.79752078124756,-73.9489397406578,casual,2022-11-24,8.1
48C82E4967C7EEA0,classic_bike,2022-07-24 14:17:20.675,2022-07-24 14:21:56.969,W 18 St & 9 Ave,6190.03,10 Ave & W 28 St,6459.04,40.7435337324616,-74.00367558002472,40.75066386,-74.00176802,member,2022-07-24,31.1
FE199C14940E829F,classic_bike,2022-06-05 14:14:55.259,2022-06-05 14:22:18.531,W 76 St & Columbus Ave,7281.09,Broadway & W 61 St,7014.12,40.7801839724239,-73.97728532552719,40.77003010255044,-73.9819684624672,member,2022-06-05,20.0
CE1614980CF393A1,electric_bike,2022-06-22 18:49:58.003,2022-06-22 18:55:01.746,Riverside Dr & W 91 St,7524.16,Riverside Dr & W 72 St,7288.04,40.79313480986663,-73.97700369358063,40.78057799010334,-73.98562431335449,member,2022-06-22,19.1
33DB8ADBC4CF9B78,electric_bike,2022-02-24 21:43:17.983,2022-02-24 22:02:28.517,Woodward Ave & Harman St,5074.08,Huron St & Franklin St,5869.04,40.70793,-73.91092,40.73266,-73.95826,member,2022-02-24,1.1
F12C36A42BFBB263,electric_bike,2022-11-18 21:43:09.770,2022-11-18 21:53:43.395,President St & 4 Ave,4101.17,Prospect Park W & 20 St,3507.04,40.676771402,-73.983135462,40.656633,-73.983864,member,2022-11-18,4.5
AC186FAC1EAFAFCF,classic_bike,2022-06-07 11:16:54.664,2022-06-07 11:23:48.138,E 81 St & 3 Ave,7154.07,E 68 St & 3 Ave,6896.16,40.77573034,-73.9567526,40.76712840349542,-73.96224617958069,member,2022-06-07,21.8
7AB0314957F4BD69,classic_bike,2022-01-15 19:46:48.119,2022-01-15 19:57:54.108,W 36 St & 9 Ave,6569.07,2 Ave & E 31 St,6197.02,40.75462324029105,-73.99516761302948,40.74290902,-73.97706058,member,2022-01-15,-6.7
1170EF1ADCE673AD,classic_bike,2022-11-11 09:07:21.306,2022-11-11 09:23:14.969,E 30 St & Park Ave S,6206.08,Warren St & W Broadway,5288.09,40.74444921,-73.98303529,40.71473993,-74.00910627,member,2022-11-11,16.4
CB8CBC3C025EC4AA,classic_bike,2022-04-20 17:24:07.903,2022-04-20 17:34:35.598,W 25 St & 6 Ave,6215.04,W 34 St & 11 Ave,6578.01,40.74395411,-73.99144871,40.75594159,-74.0021163,casual,2022-04-20,9.4
4B548CC1F1285294,electric_bike,2022-08-10 05:36:24.554,2022-08-10 05:40:48.325,21 St & Queens Plaza North,6471.02,28 St & 41 Ave,6462.19,40.75325964,-73.94335788,40.751047,-73.93797,member,2022-08-10,27.2
A1D2ABFA531AC3D0,electric_bike,2022-02-08 14:37:00.530,2022-02-08 14:44:27.503,E 161 St & River Ave,8041.07,Ogden Ave & Merriam Ave,8218.04,40.827883,-73.927111,40.839142,-73.925961,casual,2022-02-08,4.1
8664A4FAD495009B,electric_bike,2022-11-03 16:30:21.661,2022-11-03 16:33:14.979,Pleasant Ave & E 116 St,7450.05,E 115 St & Lexington Ave,7599.09,40.794934273,-73.933349371,40.797911,-73.9423,member,2022-11-03,15.7
87666DA85551A157,classic_bike,2022-06-11 11:45:28.209,2022-06-11 11:52:25.838,Sands St & Jay St,4821.03,Flushing Ave & Vanderbilt Ave,4762.05,40.700119,-73.9862,40.69795031569544,-73.97077560424805,casual,2022-06-11,21.8
168A7C45193D18AB,electric_bike,2022-04-30 14:26:17.858,2022-04-30 15:27:01.292,Central Park W & W 97 St,7538.18,Central Park West & W 68 St,7079.06,40.79249519495111,-73.96417066463071,40.7734066,-73.97782542,casual,2022-04-30,12.9
4F1411CAF2B6748E,electric_bike,2022-03-25 14:44:06.469,2022-03-25 15:13:16.297,W 34 St &\tHudson Blvd E,6535.04,W 16 St & The High Line,6233.05,40.75516719072139,-74.00059908628464,40.74334935,-74.00681753,casual,2022-03-25,9.6
CBC48B58C6DE63C9,electric_bike,2022-07-13 17:18:10.478,2022-07-13 17:29:46.956,W 40 St & 5 Ave,6474.02,LaGuardia Pl & W 3 St,5721.14,40.752269,-73.982079,40.72917025,-73.99810231,casual,2022-07-13,28.9
718E6D5DFF802B36,electric_bike,2022-09-06 14:28:40.820,2022-09-06 14:36:06.200,Sharon St & Olive St,5323.06,Meserole Ave & Manhattan Ave,5666.04,40.71534162042448,-73.93865078687668,40.72708584,-73.95299117,member,2022-09-06,23.3
A1B4F224E390C24E,classic_bike,2022-07-03 21:32:35.187,2022-07-03 21:34:15.658,Central Park West & W 68 St,7079.06,Central Park West & W 68 St,7079.06,40.7734066,-73.97782542,40.7734066,-73.97782542,casual,2022-07-03,26.9
76E5E4E2FB8D5EA3,electric_bike,2022-11-30 00:07:26.473,2022-11-30 00:09:51.682,Central Park North & Adam Clayton Powell Blvd,7617.07,W 110 St & Amsterdam Ave,7646.04,40.799515128,-73.955728889,40.802692,-73.96295,casual,2022-11-30,8.4
8E0C09BBD30F1894,electric_bike,2022-02-05 13:25:26.819,2022-02-05 13:29:20.565,Frederick Douglass Blvd & W 115 St,7658.13,St. Nicholas Ave & W 126 St,7756.10,40.8038654,-73.9559308,40.8114323,-73.9518776,member,2022-02-05,-2.8
4A0EAC2DF3D645A3,classic_bike,2022-02-22 09:58:06.580,2022-02-22 10:03:28.541,8 Ave & W 31 St,6450.05,W 22 St & 10 Ave,6306.06,40.7505853470215,-73.9946848154068,40.74691959,-74.00451887,member,2022-02-22,5.6
9B8B0D2926C69A49,classic_bike,2022-10-29 16:38:26.518,2022-10-29 17:03:20.243,Broadway & E 19 St,6098.12,Sullivan St & Washington Sq,5721.01,40.73866091428551,-73.98987293243407,40.73047747,-73.99906065,casual,2022-10-29,10.8
51B5699C3886280C,classic_bike,2022-09-20 10:30:42.913,2022-09-20 11:26:39.482,10 St & 5 Ave,3842.08,Schermerhorn St & Court St,4565.04,40.6686273,-73.98700053,40.69102925677968,-73.99183362722397,member,2022-09-20,23.2
5A86B8EA76C8EF17,classic_bike,2022-08-25 17:27:22.554,2022-08-25 17:30:20.758,St James Pl & Oliver St,5238.05,Pike St & Monroe St,5159.04,40.71307916,-73.99851193,40.71173107,-73.99193043,member,2022-08-25,28.1
E9AC1F4D52E0BCA7,classic_bike,2022-12-19 17:27:14.691,2022-12-19 17:41:29.777,Powers St & Olive St,5210.01,Calyer St & Guernsey St,5709.03,40.71323,-73.93894,40.72755807335852,-73.95505852997303,member,2022-12-19,1.7
A23794773B6B0164,classic_bike,2022-09-25 14:21:10.977,2022-09-25 14:26:28.870,Columbus Ave & W 95 St,7520.07,W 84 St & Columbus Ave,7382.04,40.7919557,-73.968087,40.78499979,-73.97283406,member,2022-09-25,19.2
AAD11B4177B7432D,classic_bike,2022-10-27 18:51:43.063,2022-10-27 18:57:56.310,E 9 St & Avenue C,5616.01,E 1 St & 1 Ave,5593.01,40.72521311,-73.97768752,40.72335597960796,-73.98864984512329,member,2022-10-27,16.9
95FCC8F4ECE577DD,electric_bike,2022-05-04 11:54:00.741,2022-05-04 12:09:38.267,W 84 St & Columbus Ave,7382.04,6 Ave & W 33 St,6364.07,40.78499979,-73.97283406,40.74901271,-73.98848395,member,2022-05-04,12.0
8D13EBFF873C89AD,classic_bike,2022-10-13 20:31:53.626,2022-10-13 20:44:42.565,E 53 St & 3 Ave,6617.02,W 46 St & 11 Ave,6795.01,40.75763227739443,-73.96930575370789,40.76341379,-73.99667444,member,2022-10-13,18.7
10C5F3C46C77D38C,electric_bike,2022-02-10 19:04:53.433,2022-02-10 19:09:40.864,W 84 St & Columbus Ave,7382.04,Riverside Dr & W 82 St,7388.10,40.78499979,-73.97283406,40.78720869,-73.98128127,member,2022-02-10,6.3
8A93FA091822DEEF,electric_bike,2022-05-19 14:13:20.875,2022-05-19 14:18:20.393,St Johns Pl & Washington Ave,4001.09,7 Ave & Park Pl,4125.07,40.6737236,-73.9631611,40.6776147,-73.97324283,member,2022-05-19,15.5
56EE0DD49CD0C76B,electric_bike,2022-12-02 13:16:17.276,2022-12-02 13:40:07.765,Mercer St & Spring St,5532.01,West End Ave & W 60 St,7059.08,40.723417044,-73.999456406,40.77237,-73.99005,member,2022-12-02,3.4
32BF868327AE6DAA,electric_bike,2022-01-18 16:02:28.667,2022-01-18 16:12:13.074,38 Ave & 29 St,6538.11,27 Ave & 9 St,7098.05,40.75473,-73.93367,40.7739825,-73.9309134,member,2022-01-18,1.8
1A4F03F3AB54D4B4,classic_bike,2022-09-07 21:06:08.929,2022-09-07 21:19:14.629,6 Ave & W 34 St,6364.10,8 Ave & W 52 St,6816.07,40.74964,-73.98805,40.76370739,-73.9851615,member,2022-09-07,20.8
0426E9B0D9F0BE61,classic_bike,2022-11-01 09:35:10.635,2022-11-01 09:42:17.004,E 10 St & 2 Ave,5746.02,1 Ave & E 30 St,6079.03,40.72970805644994,-73.9865979552269,40.74144387,-73.97536082,member,2022-11-01,16.9
87DCAE30F93CAE41,classic_bike,2022-05-08 19:33:28.718,2022-05-08 19:42:15.855,E 53 St & Lexington Ave,6617.09,9 Ave & W 45 St,6717.06,40.75828065,-73.97069431,40.76019252,-73.9912551,member,2022-05-08,10.4
B21AFDAC9C1278F1,classic_bike,2022-11-03 11:36:45.439,2022-11-03 11:48:49.087,Roebling St & N 4 St,5267.09,Bushwick Ave & Forrest St,4914.03,40.71469,-73.95739,40.70076,-73.93641,member,2022-11-03,15.7
59E61A290CD4195E,classic_bike,2022-12-03 16:25:49.363,2022-12-03 16:57:06.377,W 4 St & 7 Ave S,5880.02,Bleecker St & Crosby St,5679.08,40.73401143,-74.00293877,40.72615604980408,-73.99510189890862,casual,2022-12-03,10.6
582B4678592F008A,classic_bike,2022-04-13 18:23:29.867,2022-04-13 18:48:16.156,W 21 St & 6 Ave,6140.05,W 82 St & Central Park West,7304.08,40.74173969,-73.99415556,40.78275,-73.97137,member,2022-04-13,15.4
052584413A7A16FC,classic_bike,2022-05-14 20:56:06.464,2022-05-14 21:32:37.728,Warren St & Court St,4413.08,11 Ave & Prospect Ave,3538.09,40.686371,-73.99383324,40.65629,-73.977335,casual,2022-05-14,17.9
5C4938B0011E8C97,electric_bike,2022-03-31 13:06:00.193,2022-03-31 13:16:18.883,E 93 St & 2 Ave,7286.02,E 82 St & East End Ave,7049.04,40.782454175279874,-73.9489196240902,40.7724607,-73.9468208,member,2022-03-31,9.9
82C3FE589B5D9E92,classic_bike,2022-05-01 21:11:00.976,2022-05-01 21:17:15.822,Broadway\t& W 48 St,6708.04,W 39 St & 9 Ave,6644.04,40.76017739537783,-73.98486793041229,40.75645824,-73.99372222,member,2022-05-01,13.6
E2DAC198B2431927,classic_bike,2022-06-01 08:31:05.896,2022-06-01 08:36:10.864,Crescent St & 35 Ave,6688.01,28 St & 41 Ave,6462.19,40.7596276,-73.9321455,40.751047,-73.93797,casual,2022-06-01,17.8
74FC59DA68FD8215,classic_bike,2022-06-16 08:47:16.386,2022-06-16 08:57:00.362,12 Ave & W 40 St,6765.01,W 16 St & The High Line,6233.05,40.76087502,-74.00277668,40.74334935,-74.00681753,member,2022-06-16,20.3
BDA2198E8A6E6D54,classic_bike,2022-07-06 08:19:12.100,2022-07-06 08:37:04.859,6 Ave & W 33 St,6364.07,Lafayette St & Jersey St,5561.06,40.74901271,-73.98848395,40.72456089,-73.99565293,member,2022-07-06,26.0
B712A0E53E2D02F3,classic_bike,2022-11-10 15:57:22.512,2022-11-10 16:00:43.673,Bedford Ave & S 9 St,5093.01,Metropolitan Ave & Bedford Ave,5308.04,40.70853074,-73.96408963,40.71534825,-73.96024116,member,2022-11-10,12.6
E0ACA81E9E2257AD,classic_bike,2022-03-11 11:36:11.909,2022-03-11 11:43:52.321,Forsyth St & Canal St,5270.07,Norfolk St & Broome St,5374.01,40.7158155,-73.99422366,40.7172274,-73.98802084,member,2022-03-11,7.2
5C84E18D92A700C9,classic_bike,2022-05-15 14:18:01.423,2022-05-15 14:32:27.248,W 12 St & Hudson St,5997.10,10 Ave & W 14 St,6157.04,40.73752993301071,-74.00558933615685,40.74198159994023,-74.00831580162048,member,2022-05-15,18.8
DD1852BFD75784B2,classic_bike,2022-03-09 20:09:17.206,2022-03-09 20:19:26.427,Bridge St & Water St,4968.03,Willoughby Ave & Hall St,4611.03,40.70296934155272,-73.98469090461731,40.69196035,-73.96536851,casual,2022-03-09,3.2
8D29E181BF728E0F,electric_bike,2022-04-19 14:40:52.450,2022-04-19 14:46:55.264,Greene Ave & Throop Ave,4510.04,Nostrand Ave & Myrtle Ave,4707.04,40.6894932,-73.942061,40.69527008,-73.95238108,casual,2022-04-19,7.6
254B37C9C4D1DC10,electric_bike,2022-06-23 08:08:26.311,2022-06-23 08:13:01.000,E 20 St & Park Ave,6055.08,E 40 St & Park Ave,6432.11,40.73827428,-73.98751968,40.750756,-73.978326,member,2022-06-23,19.2
8B41B8E5C29C99BC,classic_bike,2022-08-30 09:31:12.412,2022-08-30 10:07:01.255,Central Park West & W 76 St,7253.04,E 77 St & 3 Ave,7092.06,40.77896784,-73.97374737,40.77314236,-73.95856158,member,2022-08-30,26.8
24A12A86CD6AC32F,electric_bike,2022-10-17 09:45:57.896,2022-10-17 09:58:25.095,Cleveland Pl & Spring St,5492.05,Old Slip & South St,4993.13,40.722065806,-73.997285366,40.70336686695866,-74.007867872715,member,2022-10-17,16.6
2F89202C284C4431,classic_bike,2022-06-15 17:42:05.538,2022-06-15 17:54:55.246,E 47 St & 2 Ave,6498.10,E 15 St & 3 Ave,5863.07,40.75323098,-73.97032517,40.734232,-73.986923,member,2022-06-15,23.3
28AF52E1E07E2F94,classic_bike,2022-04-27 17:40:41.371,2022-04-27 18:05:38.105,State St & Smith St,4522.07,Stanton St & Mangin St,5326.06,40.68917,-73.9886,40.71782143,-73.97628939,member,2022-04-27,11.6
25BFC8D3C64C659B,classic_bike,2022-07-28 22:48:51.246,2022-07-28 23:06:19.654,W 41 St & 8 Ave,6602.03,Madison Ave & E 26 St,6131.12,40.756405,-73.990026,40.742685,-73.986713,casual,2022-07-28,26.7
66C40D4403F8406C,classic_bike,2022-03-16 11:20:34.929,2022-03-16 11:39:06.022,Broadway & W 25 St,6173.08,Pier 40 - Hudson River Park,5696.03,40.74286877312112,-73.98918628692627,40.7277140777778,-74.01129573583603,member,2022-03-16,13.6
7C2BF3B0C17C8B36,classic_bike,2022-09-15 07:40:11.329,2022-09-15 07:57:36.204,E 9 St & Avenue C,5616.01,E 47 St & Park Ave,6584.12,40.72521311,-73.97768752,40.75510267,-73.97498696,member,2022-09-15,21.8
8049C9F47F051375,classic_bike,2022-08-20 00:59:43.312,2022-08-20 01:11:01.979,W 49 St & 8 Ave,6747.06,E 40 St & Park Ave,6432.11,40.76227205,-73.98788205,40.750756,-73.978326,member,2022-08-20,27.9
000165005DD328AE,electric_bike,2022-02-23 17:30:23.133,2022-02-23 17:38:14.142,Leonard St & Nassau Ave,5550.09,Vernon Blvd & 50 Ave,6170.02,40.7239567849954,-73.94984364509583,40.74232744,-73.95411749,member,2022-02-23,14.4
03E20BB55547677E,classic_bike,2022-09-10 22:35:34.853,2022-09-10 22:39:37.233,Graham Ave & Withers St,5403.04,Devoe St & Lorimer St,5259.06,40.7169811,-73.94485918,40.71335226222875,-73.9491033554077,member,2022-09-10,23.6
FCF9B1BCA6D4974C,electric_bike,2022-08-26 10:22:48.684,2022-08-26 10:30:18.631,Greenpoint Ave & Manhattan Ave,5785.05,Metropolitan Ave & Bedford Ave,5308.04,40.73026,-73.95394,40.71534825,-73.96024116,member,2022-08-26,27.4
AC2CD590E7AA01C2,electric_bike,2022-05-02 17:14:27.854,2022-05-02 17:31:53.217,Myrtle Ave & St Edwards St,4659.02,Prospect Park West & 8 St,3722.04,40.69327018,-73.97703874,40.66514681533792,-73.97637605667114,member,2022-05-02,12.1
701F4550B9A9EF64,electric_bike,2022-07-28 06:51:52.048,2022-07-28 07:11:53.153,West St & Chambers St,5329.03,William St & Pine St,5065.12,40.717684507,-74.013134241,40.70717936,-74.00887308,member,2022-07-28,26.7
12986C01C0B739BF,classic_bike,2022-10-12 08:55:02.021,2022-10-12 09:01:48.804,E 22 St & 2 Ave,5971.09,E 10 St & 2 Ave,5746.02,40.73716919369882,-73.98122549057007,40.72970805644994,-73.9865979552269,member,2022-10-12,17.9
A43729C6479A39C2,classic_bike,2022-09-01 16:59:54.726,2022-09-01 17:18:06.159,1 Ave & E 39 St,6303.01,W 47 St & 10 Ave,6824.07,40.74714,-73.97113,40.76269882,-73.99301222,member,2022-09-01,25.9
7BCF167B1B043E35,electric_bike,2022-07-05 18:23:43.442,2022-07-05 18:31:01.853,Monroe St & Tompkins Ave,4434.06,Broadway & Whipple St,4883.03,40.686203,-73.944694,40.7016657,-73.9437303,member,2022-07-05,25.9
5E8989E2B5F043A4,electric_bike,2022-12-18 11:14:42.186,2022-12-18 11:22:13.860,W 116 St & Amsterdam Ave,7692.11,W 84 St & Broadway,7409.08,40.806478262,-73.960959673,40.7867947,-73.977112,member,2022-12-18,3.1
96149AC9F2599305,classic_bike,2022-02-11 17:21:51.601,2022-02-11 17:45:23.638,44 St & 3 Ave,3315.05,5 Ave & 3 St,3987.06,40.651173,-74.011405,40.6728155,-73.98352355,member,2022-02-11,8.6
57924BB1A1F3E297,classic_bike,2022-05-11 21:28:29.286,2022-05-11 21:30:29.013,Ditmars Blvd & 19 St,7291.06,Crescent St & Ditmars Blvd,7233.05,40.78145,-73.9183302,40.7787185,-73.9145645,member,2022-05-11,16.1
BC03FB9BCAF3276D,electric_bike,2022-02-13 22:20:54.860,2022-02-13 22:24:32.177,Henry St & Atlantic Ave,4531.05,President St & Henry St,4307.13,40.69089272,-73.99612349,40.6828003,-73.99990419,member,2022-02-13,2.8
7F2DB92305E5F8EB,classic_bike,2022-06-02 17:25:35.873,2022-06-02 17:31:16.169,Great Jones St,5636.11,Ave A & E 11 St,5703.13,40.72743423,-73.99379025,40.72854745023944,-73.98175925016403,member,2022-06-02,20.3
94CD62D2F9FD64AF,electric_bike,2022-06-17 17:09:06.754,2022-06-17 17:15:32.575,W 36 St & 7 Ave,6483.06,E 40 St & Park Ave,6432.11,40.752149,-73.989539,40.750756,-73.978326,member,2022-06-17,25.2
E03EE057854D87E9,classic_bike,2022-01-09 12:35:21.952,2022-01-09 12:38:27.431,1 Ave & E 18 St,5854.09,E 13 St & Avenue A,5779.09,40.73381219196632,-73.98054420948029,40.72966729392978,-73.98067966103554,member,2022-01-09,1.4
1A65B5F6440F2C59,classic_bike,2022-03-08 06:52:09.990,2022-03-08 06:55:01.568,Riverside Blvd & W 67 St,7183.03,W 70 St & Amsterdam Ave,7207.08,40.777507027547976,-73.98888587951659,40.77748046,-73.98288594,member,2022-03-08,8.7
A41FE89C85EDB017,electric_bike,2022-11-29 12:32:04.486,2022-11-29 12:40:16.419,E 16 St & Irving Pl,5938.11,E 33 St & 1 Ave,6197.08,40.735312939,-73.988202691,40.74322681432173,-73.97449783980846,member,2022-11-29,5.4
B178D04E66965C71,electric_bike,2022-06-04 12:46:27.564,2022-06-04 13:21:52.918,Market St & Henry St,5270.09,Somers St & Broadway,4203.04,40.71329844,-73.994260192,40.67945,-73.90474,member,2022-06-04,21.9
4E17C066F5A60530,classic_bike,2022-10-15 23:55:40.902,2022-10-16 00:05:07.118,Perry St & Greenwich Ave,5955.12,St Marks Pl & 1 Ave,5626.13,40.735918,-74.000939,40.72779126,-73.98564945,member,2022-10-15,16.2
DBADE996E81B5602,classic_bike,2022-05-29 17:12:51.547,2022-05-29 17:23:36.018,6 Ave & Walker St,5430.10,Vesey St & Church St,5216.06,40.7197920901383,-74.0052238852195,40.71221958009051,-74.01047229766846,member,2022-05-29,20.7
DF8D9A0F0C43F801,electric_bike,2022-04-18 09:28:19.336,2022-04-18 09:32:18.338,West Thames St,5114.06,Broad St & Bridge St,4962.08,40.70834698,-74.01713445,40.70365182,-74.01167797,member,2022-04-18,7.9
E73C948C00906A48,classic_bike,2022-11-13 15:16:10.265,2022-11-13 15:28:13.918,Kosciuszko St & Nostrand Ave,4519.04,DeKalb Ave & Hudson Ave,4513.06,40.69072549,-73.95133465,40.689888,-73.981013,member,2022-11-13,12.9
1ADE2A87041D8DB2,classic_bike,2022-04-11 17:57:38.613,2022-04-11 18:17:56.446,W 30 St & 10 Ave,6459.07,7 Ave & Central Park South,6912.01,40.752694,-74.002353,40.7667405590595,-73.9790689945221,member,2022-04-11,8.8
98302BD0D9602F60,classic_bike,2022-11-19 14:16:04.639,2022-11-19 14:20:35.818,Mott St & Prince St,5561.04,Stanton St & Norfolk St,5445.07,40.72317958,-73.99480012,40.720747,-73.986274,member,2022-11-19,2.8
382FA452A7B65F93,electric_bike,2022-09-10 15:55:30.897,2022-09-10 16:35:09.072,Roosevelt Island Tramway,6599.01,Southpoint Park,6566.01,40.757296205,-73.953536391,40.75370225419114,-73.95865201950072,casual,2022-09-10,23.6
56CFFBD75A226A74,electric_bike,2022-02-23 11:07:18.849,2022-02-23 11:10:30.915,Broadway & W 38 St,6560.15,6 Ave & W 33 St,6364.07,40.7529728216068,-73.98734897375107,40.74901271,-73.98848395,member,2022-02-23,14.4
A7F1FC06B290F4C6,classic_bike,2022-04-13 16:43:59.288,2022-04-13 17:04:29.835,W 27 St & 7 Ave,6247.06,Great Jones St,5636.11,40.746647,-73.993915,40.72743423,-73.99379025,casual,2022-04-13,15.4
5440619CE41FBAFF,electric_bike,2022-08-07 14:29:46.140,2022-08-07 14:34:28.363,Madison St & Woodward Ave,4954.07,Suydam St & St. Nicholas Ave,5043.06,40.70415473,-73.904025435,40.70636,-73.91945,casual,2022-08-07,29.6
852843121E42AAA4,electric_bike,2022-05-10 12:03:36.349,2022-05-10 13:43:47.415,Central Park S & 6 Ave,6876.04,7 Ave & Central Park South,6912.01,40.76590936,-73.97634151,40.7667405590595,-73.9790689945221,casual,2022-05-10,15.4
9CE74667C3195901,electric_bike,2022-08-20 19:42:35.702,2022-08-20 19:57:57.129,Lenox Ave & W 144 St,7910.01,W 147 St & Adam Clayton Powell Blvd,7971.07,40.819783,-73.936521,40.82281,-73.937413,member,2022-08-20,27.9
6F1458AA013F8072,classic_bike,2022-09-26 14:03:23.107,2022-09-26 14:36:25.687,2 Ave & E 29 St,6122.09,Pier 40 - Hudson River Park,5696.03,40.74172351097472,-73.97809267044067,40.7277140777778,-74.01129573583603,member,2022-09-26,19.4
D54E55AF4DFB92B1,classic_bike,2022-07-01 13:00:05.435,2022-07-01 13:15:40.108,Cadman Plaza E & Red Cross Pl,4821.06,Atlantic Ave & Fort Greene Pl,4354.07,40.69991755,-73.98971773,40.68382604,-73.97632328,member,2022-07-01,28.1
0B583BFF658644A5,electric_bike,2022-07-21 15:04:56.840,2022-07-21 15:07:08.262,Willis Ave & Bruckner Blvd,7691.05,St. Ann's Av & Bruckner Blvd,7657.03,40.805662632,-73.92520988,40.803399,-73.919763,member,2022-07-21,29.8
15BAF18F7479047B,classic_bike,2022-04-08 12:02:47.511,2022-04-08 12:09:03.615,2 Ave & E 99 St,7386.10,E 89 St & 3 Ave,7265.10,40.7862586,-73.94552579,40.7806284,-73.9521667,member,2022-04-08,12.8
137B1D89A1DC21C6,electric_bike,2022-09-20 10:40:14.086,2022-09-20 10:49:38.186,Cadman Plaza E & Red Cross Pl,4821.06,Carlton Ave & Park Ave,4732.04,40.69988668,-73.989801288,40.69580705,-73.97355569,casual,2022-09-20,23.2
722B06D616A3BB99,classic_bike,2022-07-31 01:30:45.225,2022-07-31 01:35:47.464,W 52 St & 6 Ave,6740.01,W 41 St & 8 Ave,6602.03,40.76132983124814,-73.97982001304626,40.75640548,-73.9900262,member,2022-07-31,26.3
3DBB17DD6C6A2464,classic_bike,2022-11-20 09:43:27.484,2022-11-20 09:52:31.048,E 58 St & 1 Ave (NE Corner),6682.03,1 Ave & E 78 St,7020.09,40.75892386377695,-73.96226227283478,40.77140426,-73.9535166,member,2022-11-20,2.7
BEC5106951E729DD,classic_bike,2022-05-17 18:55:58.351,2022-05-17 18:57:52.000,20 Ave & Shore Blvd,7391.02,20 Ave & Shore Blvd,7391.02,40.785994,-73.915098,40.785994,-73.915098,casual,2022-05-17,19.7
9B47504DEB243051,electric_bike,2022-08-04 16:39:21.724,2022-08-04 16:43:12.509,W 45 St & 8 Ave,6676.02,Broadway & W 51 St,6779.04,40.75929124,-73.98859651,40.76228826,-73.98336183,member,2022-08-04,29.1
644649CDD93F2F4E,electric_bike,2022-06-15 06:48:51.870,2022-06-15 06:55:29.518,21 St & Queens Plaza North,6471.02,34 St & 35 Ave,6605.08,40.753293991,-73.943403959,40.7569332,-73.9262231,member,2022-06-15,23.3
4C4253BD9287DC4E,classic_bike,2022-07-04 10:59:55.338,2022-07-04 11:20:42.377,E 51 St & Lexington Ave,6659.01,5 Ave & E 78 St,7161.08,40.75714758,-73.97207836,40.77632142182271,-73.96427392959595,casual,2022-07-04,25.6
60B4AAAA36F5B7BB,classic_bike,2022-04-14 13:39:10.362,2022-04-14 13:45:20.718,Franklin St & Dupont St,5944.01,Franklin St & Dupont St,5944.01,40.73564,-73.95866,40.73564,-73.95866,member,2022-04-14,16.3
A069F4A430933A7B,classic_bike,2022-07-21 07:04:06.055,2022-07-21 07:17:53.709,Clermont Ave & Park Ave,4692.01,Clermont Ave & Park Ave,4692.01,40.695734,-73.971297,40.695734,-73.971297,casual,2022-07-21,29.8
9210FA65A87E9373,classic_bike,2022-05-27 09:02:27.477,2022-05-27 09:10:38.233,Broadway & W 25 St,6173.08,Thompson St & Bleecker St,5721.07,40.74286877312112,-73.98918628692627,40.72840059450829,-73.99968780577183,member,2022-05-27,20.2
14592DED3113F2A3,classic_bike,2022-08-29 12:23:58.310,2022-08-29 12:44:04.597,Warren St & W Broadway,5288.09,Walker St & Baxter St,5351.07,40.71473993,-74.00910627,40.717411,-73.999573,member,2022-08-29,26.0
2F6D0CF90190BB96,electric_bike,2022-07-01 12:31:08.130,2022-07-01 12:35:27.286,W 18 St & 6 Ave,6064.08,6 Ave & W 34 St,6364.10,40.73971301,-73.99456405,40.74964,-73.98805,member,2022-07-01,28.1
B519DD8C39CA2339,electric_bike,2022-07-03 20:05:58.861,2022-07-03 20:27:56.367,10 Ave & W 28 St,6459.04,E 22 St & 2 Ave,5971.09,40.75066386,-74.00176802,40.73716919369882,-73.98122549057007,member,2022-07-03,26.9
B588A300A5F7481D,classic_bike,2022-10-09 13:42:53.853,2022-10-09 13:54:55.078,9 Ave & W 22 St,6266.06,Thompson St & Bleecker St,5721.07,40.7454973,-74.00197139,40.72840059450829,-73.99968780577183,member,2022-10-09,12.3
143666CB31A8731E,classic_bike,2022-09-17 10:09:15.380,2022-09-17 10:20:57.516,Mott St & Prince St,5561.04,North Moore St & Greenwich St,5470.12,40.72317958,-73.99480012,40.72019521437465,-74.0103006362915,casual,2022-09-17,20.8
A68121F645A2B105,electric_bike,2022-02-01 11:57:11.017,2022-02-01 12:04:21.932,Allen St & Stanton St,5484.09,Sullivan St & Washington Sq,5721.01,40.722055,-73.989111,40.73047747,-73.99906065,member,2022-02-01,-1.7
082BCACA73FAB6F3,classic_bike,2022-12-07 15:25:23.084,2022-12-07 15:31:43.831,E 27 St & Park Ave S,6131.13,E 25 St & 1 Ave,6004.07,40.74275179648995,-73.9847157150507,40.7381765,-73.97738662,member,2022-12-07,13.8
63C877F1191486BE,classic_bike,2022-09-15 08:23:29.759,2022-09-15 08:39:58.677,Fulton St & Irving Pl,4263.12,4 Ave & 9 St,3955.05,40.68186,-73.959432,40.6705135,-73.98876585,member,2022-09-15,21.8
F66B3083CD6084EC,classic_bike,2022-04-29 17:15:20.532,2022-04-29 18:18:22.620,35 St & 34 Ave,6679.11,35 St & 34 Ave,6679.11,40.7580583,-73.9242751,40.7580583,-73.9242751,casual,2022-04-29,10.4
7C8DF6D51A12B62D,electric_bike,2022-03-18 14:16:11.038,2022-03-19 12:28:30.069,Lincoln Ave & E 138 St,7744.06,Amsterdam Ave & W 131 St,7842.16,40.810893,-73.927311,40.816355,-73.954295,casual,2022-03-18,13.9
2597D8F5959C9ACF,classic_bike,2022-07-26 17:25:59.273,2022-07-26 17:37:31.625,W 20 St & 10 Ave,6306.01,Broadway & E 19 St,6098.12,40.745686,-74.005141,40.73866091428551,-73.98987293243407,member,2022-07-26,25.9
B74CE4DCC6071AD9,classic_bike,2022-09-28 12:20:07.776,2022-09-28 12:41:36.170,6 Ave & W 45 St,6593.15,Amsterdam Ave & W 79 St,7311.02,40.756951,-73.982631,40.7829391,-73.9786517,member,2022-09-28,17.2
34E98C6B57C0684D,classic_bike,2022-08-21 16:01:28.484,2022-08-21 16:06:26.344,W 54 St & 11 Ave,6955.05,W 47 St & 10 Ave,6824.07,40.768333,-73.992573,40.76269882,-73.99301222,member,2022-08-21,25.3
C607DD9307F45342,electric_bike,2022-05-02 12:22:03.832,2022-05-02 12:30:30.995,2 Ave & E 72 St,6925.09,E 89 St & York Ave,7204.08,40.7687620293096,-73.95840793848038,40.7779453,-73.946041,member,2022-05-02,12.1
678087DA060B5B1A,classic_bike,2022-11-26 11:41:43.271,2022-11-26 11:43:54.726,Broadway & W 51 St,6779.04,Broadway & W 56 St,6847.02,40.76228826,-73.98336183,40.7652654,-73.98192338,member,2022-11-26,9.3
29BA7AFAFB8AA81D,classic_bike,2022-08-13 19:41:17.937,2022-08-13 19:46:18.289,Central Park West & W 85 St,7354.01,Central Park W & W 97 St,7538.18,40.78476,-73.969862,40.79249519495111,-73.96417066463071,member,2022-08-13,23.1
1BDCF51D485D210A,electric_bike,2022-01-21 07:05:38.311,2022-01-21 07:19:13.448,Van Brunt St & Van Dyke St,4095.1,Boerum Pl\t& Pacific St,4488.09,40.6758329439129,-74.01472628116608,40.68848905639242,-73.99116039276123,member,2022-01-21,-6.0
BA6963CFCE82C160,electric_bike,2022-09-30 16:53:50.742,2022-09-30 16:56:16.503,Catherine St & Monroe St,5128.04,Pike St & Monroe St,5159.04,40.71117444,-73.99682619,40.71173107,-73.99193043,member,2022-09-30,14.5
94169037B0750740,electric_bike,2022-03-18 10:05:21.468,2022-03-18 10:23:24.593,Franklin St & Dupont St,5944.01,Wythe Ave & Metropolitan Ave,5348.02,40.73564,-73.95866,40.716887,-73.963198,casual,2022-03-18,13.9
B0484ED28519C44F,classic_bike,2022-07-16 18:53:44.554,2022-07-16 18:56:34.222,E 11 St & 3 Ave,5788.16,E 15 St & 3 Ave,5863.07,40.73127,-73.98849,40.734232,-73.986923,member,2022-07-16,24.3
56410E4ABED7CC2C,classic_bike,2022-07-12 07:31:44.020,2022-07-12 07:50:25.376,Amsterdam Ave & W 156 St,8104.10,E 128 St & Madison Ave,7735.23,40.832081,-73.942386,40.80756,-73.939182,member,2022-07-12,25.8
8698E648093F7D2C,classic_bike,2022-09-14 22:07:04.973,2022-09-14 22:15:31.296,Barrow St & Hudson St,5805.05,Greene St & Prince St,5602.06,40.73172428,-74.00674436,40.72511734422387,-73.99930492043495,casual,2022-09-14,22.9
31B90B11C1AA1627,electric_bike,2022-11-03 14:20:12.070,2022-11-03 14:28:01.438,W 50 St & 9 Ave,6854.05,Madison Av & E 51 St,6659.09,40.76360467795863,-73.98917958140373,40.75863,-73.97513,member,2022-11-03,15.7
ACFE20BC83470CD6,classic_bike,2022-09-14 12:44:48.250,2022-09-14 12:47:24.051,E 5 St & Ave A,5626.06,E 2 St & Avenue B,5515.02,40.72479007746337,-73.98430064320564,40.72217444,-73.98368779,member,2022-09-14,22.9
CEC78F497F946378,classic_bike,2022-08-18 19:28:07.021,2022-08-18 19:43:49.282,W 16 St & The High Line,6233.05,W 47 St & 10 Ave,6824.07,40.74334935,-74.00681753,40.76269882,-73.99301222,member,2022-08-18,24.1
7D1A3B458DBE53E0,classic_bike,2022-04-24 13:37:18.082,2022-04-24 13:59:48.569,Central Park North & Adam Clayton Powell Blvd,7617.07,7 Ave & Central Park South,6912.01,40.799484,-73.955613,40.7667405590595,-73.9790689945221,casual,2022-04-24,12.8
996132352C1D5689,electric_bike,2022-06-12 18:13:50.599,2022-06-12 18:34:00.553,Fulton St & Broadway,5175.08,Park Pl & Church St,5288.08,40.711066,-74.009447,40.71334184275907,-74.00935515761375,casual,2022-06-12,20.5
64DDCEE4EBD9ADD6,electric_bike,2022-10-14 18:11:17.016,2022-10-14 18:20:15.611,MacDougal St & Washington Sq,5797.01,West St & Chambers St,5329.03,40.732489467,-73.998255372,40.71754834,-74.01322069,member,2022-10-14,15.7
F5A08696F3348B83,electric_bike,2022-09-21 14:34:16.804,2022-09-21 14:39:11.758,Franklin Ave & E 169 St,8118.02,Longfellow Ave & E 165 St,7983.04,40.83167541,-73.902088165,40.825322,-73.887729,member,2022-09-21,22.0
AB34096D4B15CFA2,classic_bike,2022-04-19 18:05:17.464,2022-04-19 18:31:32.916,Maiden Ln & Pearl St,5065.10,E 3 St & 1 Ave,5553.03,40.70706456,-74.00731853,40.72467721,-73.98783413,member,2022-04-19,7.6
B3CE1727D8B8B95B,classic_bike,2022-08-20 01:09:08.573,2022-08-20 01:13:14.010,Washington Pl & 6 Ave,5838.09,E 9 St & 5 Ave,5872.10,40.73224119,-74.00026394,40.73275887045087,-73.99581670761108,casual,2022-08-20,27.9
